city,location,latitude,longitude,timestamp,co,no2,o3,pm10,so2,aqi,aqi_category
- LOC. CASA STABBI - Chitignano (AR),AR-CASA-STABBI,43.660279999978776,11.901670000093604,2025-01-10,,,,10.0,,9.25925925925926,Good
- LOC. CASA STABBI - Chitignano (AR),AR-CASA-STABBI,43.660279999978776,11.901670000093604,2025-01-11,,1.0628124320799828,0.038203125,,,35.373263888888886,Good
-9999 - Acquapendente (VT),ACQUAPENDENTE,42.73657200013169,11.876429999623085,2025-01-11,,2.125624864159965,0.03158125,,,29.24189814814815,Good
"1010 Wien, Stephansplatz 1",Stephansplatz,48.20814999971231,16.373253999919783,2025-01-31,,10.509362524342537,0.0221160437499999,,0.4001648727953801,20.477818287036946,Good
1020 Wien,A23 Südosttangente/Wehlistraße,48.20306000005832,16.43454999985093,2025-01-31,0.2075142466976079,16.840507433166707,,13.0235,,15.887271163364817,Good
1020 Wien,A23 Südosttangente/Wehlistraße,48.20306000005832,16.43454999985093,2024-12-31,,,,,-0.3816138598407991,,
1020 Wien,Taborstraße,48.21673899971197,16.38091800012245,2025-01-31,0.2178476669046769,10.602040937513584,,11.0265,,10.209722222222222,Good
1070 Wien,Neubaugürtel,48.196789999276696,16.339839999608667,2025-01-31,-0.8729025348089968,-0.5314062160399914,,,-0.3816138598407991,,
1090 Wien,AKH,48.21910999970677,16.349817999796098,2025-01-31,,9.395910746576831,,13.5295,,12.527314814814815,Good
1100 Wien,Belgradplatz,48.174352999912685,16.361417000032255,2025-01-31,,-0.5314062160399914,,9.4919,,8.788796296296296,Good
1110 Wien,Kaiser-Ebersdorf,48.15670800023357,16.476050999964016,2025-01-31,,18.822103144968484,,19.43,1.6244966193226158,17.99074074074074,Good
1120 Wien,Gaudenzdorf,48.18714700005597,16.33933099979564,2025-01-31,,11.832154394370791,,8.18745,,11.16240980601018,Good
1130 Wien,Hietzinger Kai,48.18837299973404,16.300019999818762,2025-01-31,0.2070673205997857,15.164282177787436,,,,14.305926582818337,Good
1160 Wien,Kendlerstraße,48.20499999987784,16.309750000309077,2025-01-31,,9.850864878830688,,9.8668,,9.293268753613857,Good
1180 Wien,Schafberg,48.23537000012802,16.301563000049683,2025-01-31,,6.1921795794392525,,7.14865,,6.6191203703703705,Good
1180 Wien,Schafberg,48.23537000012802,16.301563000049683,2024-12-31,,,,,-0.3816138598407991,,
1190 Wien,Hermannskogel,48.27019999996104,16.297200000394017,2025-01-31,,5.596328615627038,0.0234730187499999,,,21.73427662037028,Good
1190 Wien,Hermannskogel,48.27019999996104,16.297200000394017,2017-07-20,,,,,1.724458095489309,2.463511564984727,Good
1190 Wien,Hohe Warte,48.2489930000069,16.357078999592627,2025-01-31,,7.085471781243208,0.022866353125,,0.9622408740440144,21.172549189814816,Good
1210 Wien,Floridsdorf,48.261086000138285,16.396953999634114,2025-01-31,,16.528025858183003,,14.0984,,15.592477224700946,Good
1220 Wien,Lobau,48.1620690001972,16.525613999764705,2025-01-31,,6.373317465550966,0.004127465625,13.859,,12.832407407407407,Good
1220 Wien,Stadlau,48.22636100028579,16.45834499999982,2025-01-31,,16.544284603347098,,19.647,-0.3816138598407991,18.191666666666666,Good
1230 Wien,Liesing - Carlberger-Gasse Gewerbegebiet,48.14124999953864,16.300082999567955,2025-01-31,,8.369951973266682,0.0251055656249999,5.3997,,23.24589409722213,Good
1230 Wien,Liesing - Carlberger-Gasse Gewerbegebiet,48.14124999953864,16.301277999644327,2024-05-31,,11.298139186372527,0.0200102874999999,7.9263,,18.528043981481392,Good
2000 Stockerau,"Stockerau, Rudolf Diesel-Straße",48.38527700028432,16.182221999607354,2025-01-31,,12.600914950445556,,17.0,,15.74074074074074,Good
"2073 Pillersdorf, Gemeinde Zellerndorf",Pillersdorf bei Retz,48.72120000005912,15.936000000165222,2025-01-31,,5.787274347424473,0.0142604624999999,8.649999,0.1423656297799282,13.204131944444354,Good
2120 Wolkersdorf,Wolkersdorf,48.39289999995362,16.522000000121576,2025-01-31,,11.025800196370357,0.010672425,,,10.4016982984626,Good
2130 Mistelbach,Mistelbach Steinhübel,48.578320000106025,16.57880000032767,2025-01-31,,,0.005082034375,20.5,0.7250659520836585,18.98148148148148,Good
2230 Gänserndorf,Gänserndorf Baumschulweg,48.33471999979392,16.729445000412536,2025-01-31,,6.402077169963052,0.002083853125,19.5,0.3816138598407991,18.055555555555557,Good
2301 Groß-Enzersdorf,Groß-Enzersdorf - Glinzendorf,48.23069999979766,16.6363000001425,2025-01-31,,7.062608560204303,,14.5,,13.425925925925926,Good
2301 Groß-Enzersdorf,Groß-Enzersdorf - Glinzendorf,48.23069999979766,16.6363000001425,2024-12-31,,,,,-0.3816138598407991,,
2320 Schwechat,"Schwechat Sportplatz, Mühlgasse",48.14558000006034,16.475900000351277,2025-01-31,0.4216642984648339,18.291650271680066,0.0016768624999999,18.0,0.7059852590916186,17.25627384120761,Good
2325 Himberg,"Himberg, Alter Markt",48.085699999920095,16.431100000239333,2025-01-31,,,0.003303296875,22.0,,20.37037037037037,Good
2331 Vösendorf,Vösendorf - Peter Jordan-Straße,48.1247400001101,16.331449999858,2025-01-31,0.1879708318457693,11.787952291023691,,,,11.120709708512916,Good
2340 Mödling,Mödling Bachgasse,48.08611100003824,16.302221999650538,2025-01-31,0.2286131738664762,10.873369405455335,-0.000509375,8.5,1.0303574215701576,10.257895665523902,Good
2351 Wiener Neudorf,Wiener Neudorf Hauptstraße,48.08430000025165,16.329000000329106,2025-01-31,,13.41387792871115,,11.0,,12.65460181953882,Good
2362 Biedermannsdorf,Biedermannsdorf Mühlengasse,48.08333299972728,16.337221999850282,2025-01-31,,18.3932710823734,,16.5,,17.35214253054094,Good
2410 Hainburg an der Donau,Hainburg Krankenhaus,48.144199999888414,16.957869999653877,2025-01-31,,13.41387792871115,0.0047264906249999,21.0,0.973114960980178,19.444444444444443,Good
2421 Kittsee,Kittsee,48.10915299947697,17.07031599999757,2024-08-01,,-0.5314062160399914,-0.000509375,-1.0,-0.3816138598407991,,
2463 Trauttmannsdorf an der Leitha,Stixneusiedl,48.05004000007596,16.675288999904094,2025-01-31,,11.432282057487502,0.0116382,,1.068518425940378,10.7851717523467,Good
2533 Klausen-Leopoldsdorf,Forsthof am Schöpfl,48.10510000025516,15.918900000098432,2025-01-31,,3.963190360791133,0.027748203125,,,25.692780671296298,Good
2533 Klausen-Leopoldsdorf,Forsthof am Schöpfl,48.10510000025516,15.918900000098432,2024-12-31,,,,,-0.3816138598407991,,
2540 Bad Vöslau,"Bad Vöslau, Gainfarn",47.95919999993157,16.205729999701063,2025-01-31,,6.452887309606608,0.0237842468749999,8.0,,22.022450810185095,Good
2650 Payerbach,Payerbach - Kreuzberg,47.67027800015293,15.859980000076328,2025-01-31,,1.5751140632471203,0.0364895875,,0.6296624871234587,33.78665509259259,Good
2700 Wiener Neustadt,Wiener Neustadt,47.8141669999377,16.254999999598795,2025-01-31,,22.96618333144968,0.001829675,11.0,0.1526451623224598,21.66621069004687,Good
2811 Wiesmath,Wiesmath,47.6083329997107,16.29305600012315,2025-01-31,,,0.0390812875,,,36.18637731481481,Good
3002 Purkersdorf,"Purkersdorf, Tullnerbachstraße",48.19549999970787,16.143400000250338,2025-01-31,,10.16202792871115,0.0157544593749999,,,14.587462384259169,Good
3100 St. Pölten,St. Pölten Europaplatz,48.20137499971693,15.61998699966266,2025-01-31,0.30989785790789,17.377066801564876,,13.0,,16.393459246759317,Good
3100 St. Pölten,St. Pölten Eybnerstraße,48.21160000001331,15.632499999767791,2025-01-31,,17.22463696718105,0.0029986906249999,15.0,0.1526455439363196,16.249657516208536,Good
3111 Gratwein-Straßengel,Judendorf Süd,47.12027799997819,15.351110999721335,2025-01-31,,17.131927147902626,,13.2822447,1.4661360262213206,16.162195422549647,Good
3222 Annaberg,"Annaberg, Joachimsberg",47.8614400002808,15.320849999819211,2025-01-31,,,0.03872574375,,,35.85717013888889,Good
3300 Amstetten,Amstetten,48.11990000003536,14.878799999865622,2025-01-31,,16.71653493305803,0.001219953125,16.5,,15.770315974583045,Good
3323 Neustadtl,Kollmitzberg,48.17927899970263,14.865049999851315,2025-01-31,,,0.001169015625,,1.3165674348368972,1.8808106211955675,Good
3331 Kematen an der Ybbs,Kematen an der Ybbs,48.04511099986302,14.77227799985018,2025-01-31,,11.991192690176048,0.0047264906249999,9.0,,11.312445934128347,Good
3380 Pöchlarn,Pöchlarn,48.21274999974504,15.204999999894676,2025-01-31,,-0.5314062160399914,0.000711596875,,,0.6588859953703704,Good
3400 Klosterneuburg,Klosterneuburg B14 (Parkplatz Bahnhof Klosterneuburg-Kierling),48.30822199989378,16.327944000169904,2025-01-31,,13.058205410128233,,12.5,,12.319061707668144,Good
3400 Klosterneuburg,Klosterneuburg Meynertgasse,48.30246000001136,16.313949999758123,2025-01-31,,6.960988334057813,0.021090671875,,0.1144841579522397,19.52839988425926,Good
3430 Tulln,Tulln Leopoldgasse,48.32944499982816,16.062500000296833,2025-01-31,,13.058205410128233,0.00747049375,24.0,0.6678242547213986,22.22222222222222,Good
3435 Zwentendorf,Zwentendorf im Tullnerfeld,48.34509000009052,15.90705999983785,2025-01-31,,14.480890329819603,,17.5,,16.203703703703702,Good
3442 Langenrohr,Neusiedl im Tullnerfeld,48.32183999991916,15.964619999927136,2025-01-31,,12.448484159530537,,16.0,,14.814814814814815,Good
3453 Trasdorf,Trasdorf im Tullnerfeld,48.33096900023436,15.857798000336045,2025-01-31,,12.753343775157576,0.008334903125,17.5,0.7059852590916186,16.203703703703702,Good
3500 Krems,Krems,48.40861000023172,15.619165999680096,2025-01-31,,-0.5314062160399914,0.00045741875,12.5,0.5533400967691589,11.574074074074074,Good
3512 Bergern im Dunkelsteinerwald,Dunkelsteinerwald - Unterbergern,48.37034999986233,15.545519999850429,2025-01-31,,8.129621227015866,0.01463638125,,,13.552204861111113,Good
3512 Bergern im Dunkelsteinerwald,Dunkelsteinerwald - Unterbergern,48.37034999986233,15.545519999850429,2024-12-31,,,,,-0.3816138598407991,,
3710 Ziersdorf,Ziersdorf,48.52832000000874,15.941849999975313,2025-01-31,,,0.0070640125,16.0,,14.814814814814815,Good
3754 Irnfritz,Irnfritz - Rothweinsdorf,48.72421000001917,15.498419999997422,2025-01-31,,,0.0262236437499999,,0.438855938816919,24.28115162037028,Good
3860 Heidenreichstein,Heidenreichstein Thaures,48.87861100022156,15.046667000216017,2025-01-31,,5.030203559008911,0.0094020437499999,10.5,0.515178329171219,9.722222222222221,Good
4020 Linz,Linz 24er Turm A7,48.323333000053104,14.297777999683168,2025-01-31,,21.71963486198652,,36.283,0.9670091392227252,33.595370370370375,Good
4020 Linz,Linz Neue Welt,48.27328999999687,14.314789999886411,2025-01-31,0.5116483291681542,18.496124755487934,0.00123981875,24.3905,1.2537923365069454,22.583796296296295,Good
4020 Linz,Linz Römerberg B139,48.302989999952935,14.282169999793677,2025-01-31,0.5680465619421635,-0.5314062160399914,,28.0285,,25.952314814814816,Good
4020 Linz,"Linz Stadtpark, Noßbergerstraße",48.306119000286174,14.297503000221871,2025-01-31,,18.66511193218865,0.00067543125,25.2445,,23.374537037037037,Good
4050 Traun,Traun Tischlerstraße,48.22535000014851,14.237549999606788,2025-01-31,,14.974230643229731,0.00100550625,29.8885,,27.674537037037037,Good
4221 Steyregg,"Steyregg Au, Freizeitpark",48.27975000009925,14.36650000016561,2025-01-31,0.6340990967511604,13.425712345142362,,30.972,0.5409376463243328,28.67777777777778,Good
4264 Grünbach,Grünbach bei Freistadt,48.53111099979446,14.574722000058197,2025-01-31,,10.396696329167572,0.0153036624999999,15.1055,0.8832452786015296,14.170057870370279,Good
4300 St. Valentin,"St. Valentin A1, Buchenstraße",48.19234000027957,14.519540000426094,2025-01-31,,15.14142219832645,0.00213428125,42.0,,38.888888888888886,Good
4400 Steyr,Steyr Münichholz,48.04944400005166,14.442777999997356,2025-01-31,,11.830165712888505,0.0010941375,13.770999,0.966055486186983,12.750925,Good
4462 Reichraming,Zöbelboden im Reichraminger Hintergebirge - Wildwiese,47.83827999982084,14.440910000076428,2025-01-31,,0.934906144316453,0.0351173312499999,1.329999,0.041977142968628,32.516047453703614,Good
4470 Enns,Enns Kristein - A1 Westautobahn,48.209443999983016,14.436944000080794,2025-01-31,0.3683666154944662,18.622599434905453,,20.9830017,,19.428705277777777,Good
4600 Wels,Wels Linzerstraße,48.164900000150745,14.036600000279703,2025-01-31,0.5929434880399856,19.307845678004774,0.00041870625,27.6565,1.3656051974402998,25.60787037037037,Good
4761 Enzenkirchen,Enzenkirchen im Sauwald,48.39163999979484,13.670859999944918,2025-01-31,,9.440524370897633,0.0130659781249999,7.015,0.4331313493054473,12.098127893518427,Good
4802 Ebensee,Feuerkogel (Höllengebirge),47.815854999743216,13.720736999564965,2025-01-31,,,0.04327751875,1.5475,,40.07177662037037,Good
4820 Bad Ischl,"Bad Ischl, Rettenbachwaldstraße",47.71611099991267,13.632221999812598,2025-01-31,,11.358542164746796,0.008292625,5.017499,,10.715605815798863,Good
4840 Vöcklabruck,"Vöcklabruck, Untere Agergasse",48.00089999986289,13.66761000034986,2025-01-31,,20.78834546837644,0.00553283125,7.317999,,19.61164666827966,Good
4860 Lenzing,Lenzing Hauptstraße,47.973859999911866,13.608919999583213,2025-01-31,,4.891593687241905,0.032171615625,4.651,-0.3816138598407991,29.78853298611111,Good
5020 Salzburg,Salzburg Mirabellplatz,47.80555600013137,13.043332999936206,2025-01-31,,12.911873249510975,0.0116488968749999,6.944,,12.181012499538657,Good
5020 Salzburg,Salzburg Mirabellplatz,47.80555600013137,13.043332999936206,2023-09-28,,,,,1.2202791866942406,1.7432559809917723,Good
5020 Salzburg,Salzburg Paumannpark,47.81574800002686,13.028006000254107,2025-01-31,,16.40303661856118,0.0104253781249999,8.666999,0.0777927485562665,15.474562847699227,Good
5020 Salzburg,Salzburg Rudolfsplatz,47.79740000020615,13.05329000020724,2025-01-31,0.3251387361656551,23.106926586611607,,11.020999,,21.798987345860006,Good
5071 Wals-Siezenheim,Salzburg Stadtautobahn A1,47.81486100028133,13.000439000278346,2025-01-31,,29.76457762442947,,15.1404991,,28.079790211725918,Good
5151 Nussdorf am Haunsberg,Haunsberg,47.93666699992863,13.015832999907596,2025-01-31,,1.527860359704412,0.042638253125,,,39.47986400462963,Good
5280 Braunau am Inn,"Braunau Zentrum, Kolpingplatz",48.25747399971527,13.039229999673225,2025-01-31,,18.411628775809607,0.000440609375,14.42,0.8252395902918683,17.369461109254345,Good
5400 Hallein,Hallein A10 Tauernautobahn,47.691349999929855,13.108149999624066,2025-01-31,,23.05713361160617,,19.342,,21.752012841137894,Good
5400 Hallein,Hallein B159 Kreisverkehr Salzachtalstr./Europastr.,47.68259000009404,13.099949999844196,2024-12-21,-0.8729025348089968,-0.5314062160399914,,-1.0,-0.3816138598407991,,
5400 Hallein,Hallein Landesberufsschule,47.68806000003904,13.094170000354303,2025-01-31,,20.27324523951315,,12.5699987,0.7118292937412206,19.125703056144484,Good
5400 Hallein,Hallein Winterstall,47.666749999933614,13.105110000091292,2025-01-31,,2.70157461204086,0.027131859375,,,25.122092013888892,Good
5400 Hallein,Hallein Winterstall,47.66700000025503,13.105999999670829,2024-12-11,,6.613955311454032,-0.000509375,,,6.239580482503804,Good
5423 St. Koloman,St. Koloman Kleinhorn,47.650277999777344,13.232777999636784,2025-01-31,,,0.0342962187499999,,,31.75575810185176,Good
5580 Tamsweg,Tamsweg Untere Postgasse,47.1256599997979,13.808040000420831,2025-01-31,,9.83989091534449,0.0118317625,9.4095,,10.95533564814815,Good
5584 Zederhaus,Zederhaus Lamm,47.13378000030273,13.543179999805544,2025-01-31,,12.235081626168224,-0.000509375,21.8535,,20.234722222222224,Good
5600 St. Johann i. Pongau,"St. Johann im Pongau, Bezirkshauptmannschaft",47.35138699980769,13.205556000340836,2025-01-31,,15.38226224429472,0.004786596875,,,14.51156815499502,Good
5661 Rauris,Sonnblick,47.054166999877815,12.958299999582488,2025-01-31,0.1077013334523384,0.1956185992175614,0.04846295625,,,44.87310763888889,Good
5700 Zell am See,Zell am See Freizeitzentrum/Eishalle,47.32663999993317,12.79512399984914,2025-01-31,,18.112797963703542,0.00151895625,16.9444981,,17.087545248776927,Good
6020 Innsbruck,Innsbruck Nordkette (Seegrube),47.30562199970638,11.375996999947828,2025-01-31,,,0.0416322374999999,,,38.548368055555464,Good
6020 Innsbruck,Innsbruck Reichenau - Andechsstraße,47.2712900001055,11.416944999866953,2025-01-31,,24.877783279287108,0.0009189125,22.276,,23.46960686725199,Good
6020 Innsbruck,Innsbruck Sadrach,47.26990299995253,11.374661000304458,2025-01-31,,-0.5314062160399914,-0.000509375,,,,
6020 Innsbruck,Innsbruck Zentrum - Fallmerayerstraße,47.26261899993602,11.392361000420872,2025-01-31,0.3832024669760799,23.215541500217345,,13.4995,0.6000874129857969,21.90145424548806,Good
6020 Innsbruck,Vill Zenzenhof A13,47.2255780001094,11.39206400031995,2025-01-31,,25.481193762225605,,17.328,,24.038862039835475,Good
6060 Hall i.T.,Hall in Tirol Untere Lend,47.27807000015557,11.51249700000818,2025-01-31,,23.10155672679852,,30.1595,,27.925462962962964,Good
6134 Vomp bei Schwaz,"Vomp A12 Inntalautobahn, Raststätte",47.34877400022658,11.69202799999374,2025-01-31,,28.470885133666595,,19.4525,,26.859325597798676,Good
6230 Brixlegg,Brixlegg Innweg,47.42855299973592,11.871803000376778,2025-01-31,,,,12.795,0.2690377711877634,11.847222222222221,Good
6233 Kramsach,Kramsach Angerberg,47.45871700016395,11.909950000239412,2025-01-31,,15.582157866442076,0.00247250625,,,14.700148930605732,Good
6250 Kundl,Kundl A12 Inntal-Autobahn,47.46891700029943,11.958035999931422,2025-01-31,,15.818899016844162,,,,14.923489638532228,Good
6300 Wörgl,Wörgl Josef Stelzhamer-Straße,47.48855799986577,12.066632999557031,2025-01-31,,16.081946316018257,0.00013345625,17.8375015,,16.516205092592593,Good
6330 Kufstein,Kufstein Festung,47.580528000072704,12.169247000201471,2025-01-31,,,0.00028423125,,,0.26317708333333334,Good
6330 Kufstein,Kufstein Zentrum Praxmarerstraße,47.581808000032616,12.172410999582803,2025-01-31,,15.730687444903282,,12.065999,,14.840271174437058,Good
6460 Imst,Imst Inntalautobahn A12,47.21694699999911,10.735716999634471,2025-01-31,,19.75715170615084,,11.4974995,,18.638822364293244,Good
6580 St. Anton am Arlberg,St. Anton am Arlberg - Galzig,47.13368099976139,10.22481100020246,2025-01-31,,,0.037177753125,,,34.42384548611111,Good
6600 Reutte,Höfen Lärchbichl,47.4698370000107,10.682283000272704,2025-01-31,,,0.0135880874999999,,,12.581562499999908,Good
6611 Heiterwang,Heiterwang Ort L355,47.44759700022206,10.744117000329195,2025-01-31,,8.995379625407521,0.011554153125,9.4315,,10.698289930555555,Good
6700 Bludenz,Bludenz Herrengasse,47.1564830001606,9.822944000261932,2025-01-31,,17.678820772984132,0.000332621875,,,16.67813280470201,Good
6752 Dalaas,Wald am Arlberg S16,47.1288630000338,10.03432399968807,2025-01-31,,22.467854814170835,0.00243990625,,,21.196089447330976,Good
6800 Feldkirch,Feldkirch Bärenkreuzung,47.23914999991401,9.597449999875105,2025-01-31,0.2815381274544805,21.869758659095847,,17.31535,,20.631847791599856,Good
6850 Dornbirn,Dornbirn Stadtstraße,47.40944999977947,9.74320000002674,2025-01-31,,24.253912541078027,,,,22.881049567054742,Good
6890 Lustenau,Lustenau Wiesenrain,47.41016399979288,9.653712999780764,2025-01-31,,,0.008466321875,,,7.839186921296297,Good
6890 Lustenau,Lustenau Wiesenrain,47.41016399979288,9.653712999780764,2023-12-20,,17.471572694142573,,,,16.48261574919111,Good
6890 Lustenau,Lustenau Zollamt,47.43249100028302,9.650481999553966,2025-01-31,,23.872627146272546,,,,22.52134636440806,Good
6934 Sulzberg,Sulzberg - Gmeind,47.52920000015058,9.926700000380986,2025-01-31,,3.861463268854597,0.033275940625,,,30.81105613425926,Good
6973 Höchst,Höchst Gemeindeamt,47.45968799978686,9.64055299977034,2025-01-31,,26.646300668658988,,,,25.138019498734895,Good
7000 Eisenstadt,Eisenstadt Laschoberstraße,47.84011399998024,16.526170000331714,2025-01-31,0.5500586594073544,18.03900912845033,0.000609721875,26.8692,0.5951264328078665,24.878888888888888,Good
7142 Illmitz,Illmitz am Neusiedler See,47.77028000009319,16.766389999627794,2025-01-31,0.2692546429846483,7.84508534840252,0.006932084375,11.7999992,0.0549123263617917,10.925925185185186,Good
7400 Oberwart,Oberwart B63a,47.27836000004684,16.220679999814614,2025-01-31,,-0.5314062160399914,-0.000509375,-1.0,,,
"8010 Graz, KG Innenstadt",Graz Schloßberg,47.075833000195736,15.437499999809912,2025-01-31,,,0.00447435,,,4.142916666666667,Good
"8010 Graz, KG Jakomini",Graz Ost Petersgasse,47.05952000018703,15.466650000199564,2025-01-31,,15.498770506411647,,21.07382,,19.512796296296298,Good
8020 Graz,Graz Don Bosco,47.055611000196606,15.416602999801889,2025-01-31,0.7759701999285971,24.54702069278418,,36.5840836,1.2315740143592946,33.87415148148148,Good
8020 Graz,Graz Lustbühel,47.06701099985318,15.493689000095726,2025-01-31,,,0.015614890625,13.3227739,,14.458232060185187,Good
8020 Graz,Graz Mitte Gries,47.06923999992436,15.431944999552604,2025-01-31,0.63135818279186,16.897162456639858,,34.00308,,31.484333333333332,Good
8020 Graz,Graz Süd Tiergartenweg,47.04172000012096,15.433080000252836,2025-01-31,0.8306540521242413,14.139385579221909,0.001006015625,33.5690536,1.1819188005306696,31.082457037037035,Good
8020 Graz,Graz Triester Straße,47.05008000009892,15.42860999956873,2025-01-31,,-0.5314062160399914,,17.7806587,,16.46357287037037,Good
8020 Graz,Graz West - Eggenberg,47.06944300023024,15.404387999622584,2025-01-31,,15.4922840027168,,23.0202789,,21.31507305555556,Good
8051 Graz Gösting,Graz Nord Gösting,47.09436099970062,15.415110999624597,2025-01-31,,13.903134279069766,0.0046821749999999,16.8784866,0.3478986569377244,15.628228333333333,Good
8111 Gratwein-Straßengel,Straßengel Kirche,47.11305600023777,15.339166999703686,2025-01-31,,17.664224266463812,,,-0.3816138598407991,16.6643625155319,Good
8112 Gratwein-Straßengel,Gratwein,47.13569999990892,15.323199999788988,2025-01-31,,9.081788082916756,,9.524105,1.6154397775870142,8.818615740740741,Good
8132 Pernegg an der Mur,Rennfeld,47.40555600012169,15.360832999815733,2025-01-31,,,0.039728703125,,,36.785836226851856,Good
8160 Weiz,Weiz Bahnhofstraße,47.21570299990339,15.628392000380256,2025-01-31,,15.499393261356229,0.0107732812499999,14.0455551,,14.622069114487008,Good
"8225 Pöllauberg, Staudach 25",Masenberg,47.34805999978996,15.882221999948554,2025-01-31,,1.2701054944577266,-0.000509375,3.973862,,3.679501851851852,Good
"8225 Pöllauberg, Staudach 25",Masenberg,47.34805999978996,15.882221999948554,2024-01-16,,,,,1.0133681175433122,1.4476687393475889,Good
8230 Hartberg,Hartberg Zentrum,47.28286000029046,15.971852000309667,2025-01-31,,-0.5314062160399914,0.000525165625,14.5874109,,13.506861944444445,Good
8230 Hartberg,Hartberg Zentrum,47.28286000029046,15.971852000309667,2024-01-31,,,,,1.236144401303262,1.7659205732903744,Good
8280 Fürstenfeld,Fürstenfeld Ungartorweg,47.047350000133925,16.0790499996444,2025-01-31,,10.336884168224296,3.0053125e-05,19.6315765,,18.17738564814815,Good
8410 Wildon,Bockberg,46.87138900009203,15.49583300020118,2025-01-31,,9.433592229950012,0.008220803125,9.3892,0.7162838723271422,8.899615311273596,Good
8430 Leibnitz,Leibnitz Lastenstraße,46.778333000184496,15.540556000320228,2025-01-31,,13.09136154444686,,19.21999,,17.796287037037036,Good
8455 Oberhaag,Arnfels - Remschnigg,46.65194999976475,15.367779999792909,2025-01-31,,,0.0166280374999999,,0.024775898236304,15.396331018518428,Good
8493 Klöch,Klöch bei Bad Radkersburg,46.76720000026332,15.956299999598354,2025-01-31,,6.73234363562269,0.020011815625,6.465,1.039872963165288,18.529458912037036,Good
8530 Deutschlandsberg,Deutschlandsberg Rathausgasse,46.81388899998208,15.212777999900156,2025-01-31,,11.80182714790263,0.002884590625,14.9035177,,13.799553425925927,Good
8570 Voitsberg,Voitsberg Mühlgasse,47.04472199980636,15.15277800032772,2025-01-31,,-0.5314062160399914,-0.000509375,-1.0,,,
8580 Köflach,Köflach,47.06333000011988,15.086666999930976,2025-01-31,,18.879453354053464,,20.991436,1.3210800187295149,19.436514814814814,Good
8600 Bruck an der Mur,B116 Bruck an der Mur,47.42566700012284,15.270527999960237,2025-01-31,,14.22485695500978,,20.4074326,,18.895770925925927,Good
8600 Bruck an der Mur,Bruck an der Mur Flurgasse,47.40944299996983,15.253333000357204,2025-01-31,,-0.5314062160399914,,22.3420658,,20.687097962962962,Good
8600 Bruck an der Mur,Bruck an der Mur Flurgasse,47.40944299996983,15.253333000357204,2024-01-30,,,,,0.9092732404635556,1.2989617720907938,Good
8605 Kapfenberg,Kapfenberg St. Martin,47.44583299971152,15.29032000030357,2025-01-31,,12.685641879265376,,15.9224873,,14.743043796296297,Good
8680 Mürzzuschlag,Mürzzuschlag Roseggerpark,47.60472199996028,15.673056000049757,2025-01-31,,9.996075984894588,0.005313290625,8.629846,,9.430260363108102,Good
8700 Leoben,Leoben Zentrum,47.38229999974259,15.088899999724886,2025-01-31,,,0.0010493125,,,0.9715856481481481,Good
8700 Leoben KG Donawitz,Leoben Donawitz Kindergarten,47.37533000018217,15.07405000006876,2025-01-31,0.3489602463405926,7.713221040860682,,8.369976,0.0,7.749977777777778,Good
"8700 Leoben, KG Göss",Leoben Göss,47.35910000006411,15.10370000005061,2025-01-31,,10.301579239730492,,14.5006466,,13.426524629629629,Good
8720 Knittelfeld,Knittelfeld Freiheitsallee,47.2116399998034,14.819720000009951,2025-01-31,,11.305668043360138,,,,10.665724569207677,Good
8720 Knittelfeld,Knittelfeld Parkstraße,47.210369999496486,14.825277999741992,2022-05-01,,,,,5.039595666887779,7.199422381268256,Good
8720 Knittelfeld,Knittelfeld Parkstraße,47.210369999496486,14.825277999741992,2024-06-11,,-0.5314062160399914,,-1.0,,,
"8740 Zeltweg, KG Farrach",Zeltweg Hauptschule,47.19250000006641,14.753333000326997,2025-01-31,,12.11836414942404,,20.1496315,,18.657066203703707,Good
8750 Judenburg,"Judenburg, Sportplatz",47.17808000002224,14.676667000157728,2025-01-31,,11.553343673766571,0.0002394062499999,12.3563042,,11.441022407407408,Good
8813 St. Lambrecht,Grebenzen bei St. Lambrecht,47.04027800020561,14.330725000014056,2025-01-31,,,0.04489325625,,,41.567829861111115,Good
8921 Obervellach,Obervellach Schulzentrum,46.93500000006306,13.194532999864856,2025-01-31,,15.554259943490544,0.002954375,11.59,,14.673830135368439,Good
8940 Liezen,Liezen Pyhrnbach,47.56543899973233,14.244675999684109,2025-01-31,,14.111875370245595,-0.000509375,16.858427,,15.60965462962963,Good
8940 Liezen,Liezen Pyhrnbach,47.56543899973233,14.244675999684109,2024-01-16,,,,,0.8825253564226627,1.2607505091752325,Good
8970 Schladming,Hochwurzen,47.36027799989535,13.639444000149386,2025-01-31,,,0.0388490125,,,35.971307870370374,Good
8993 Grundlsee,Grundlsee Tressensattel,47.630559999740896,13.796667000140484,2025-01-31,,,0.0311859749999999,,,28.875902777777686,Good
9020 Klagenfurt,Klagenfurt A2 Nordumfahrung,46.65249999996664,14.26611099981747,2025-01-31,,9.82835796565964,,,,9.272035816660038,Good
9020 Klagenfurt,Klagenfurt A2 Nordumfahrung 2,46.65281999978618,14.266200000404249,2024-12-31,,-0.5314062160399914,,,,,
9020 Klagenfurt,Klagenfurt Kreuzbergl,46.62936000014152,14.289310000114698,2025-01-31,,,0.0055445468749999,,,5.133839699073982,Good
9020 Klagenfurt,Klagenfurt Sterneckstraße,46.62661700018656,14.299144000362082,2025-01-31,,10.917740708541622,-0.000509375,12.765,0.2881180825659435,11.819444444444445,Good
9020 Klagenfurt,Klagenfurt Völkermarkter Straße,46.625559999693074,14.318059999572954,2025-01-31,0.3416540521242413,12.1665453162356,,18.515,,17.14351851851852,Good
9170 Zell bei Ebenthal,Ebenthal Zell,46.61011000023378,14.398259999917723,2025-01-31,,,,11.925,,11.041666666666668,Good
9311 Frauenstein in Kärnten,Kraiger Berg bei St. Veit an der Glan,46.82518000006966,14.330140000033046,2025-01-31,,,0.02722609375,,,25.209346064814817,Good
9373 Klein St. Paul,Klein St. Paul - Pemberg,46.84283000017314,14.529979999672571,2025-01-31,,4.51429527385351,,1.454999,0.6697319424067426,4.2587691262768965,Good
9400 Wolfsberg,Wolfsberg Hauptschule,46.834974999868805,14.843459999907257,2025-01-31,,16.48687663040643,0.000690203125,14.0749989,0.8738953574215703,15.553657198496634,Good
9423 St. Georgen im Lavanttal,St. Georgen im Lavanttal - Herzogberg,46.708333000230176,14.89166699997309,2025-01-31,,5.144012171267116,0.010184953125,7.17,,9.430512152777778,Good
9423 St. Georgen im Lavanttal,St. Georgen im Lavanttal - Herzogberg,46.708333000230176,14.89166699997309,2025-01-30,,,,,-0.3816138598407991,,
9500 Villach,Villach Tirolerbrücke,46.61249999978496,13.841389000434624,2025-01-31,,14.143376439904369,,15.5149994,,14.365740185185185,Good
9543 Arriach,Gerlitzen Steinturm,46.69540000003656,13.914489999567936,2025-01-31,,,0.0474024375,,,43.89114583333333,Good
9601 Arnoldstein,Arnoldstein Gailitz Waldsiedlungsstraße,46.55840000002463,13.703449999900425,2025-01-31,,,0.002119,5.149999,0.1679097167160917,4.768517592592593,Good
9640 Kötschach-Mauthen,Vorhegg bei Kötschach-Mauthen,46.6776500000797,12.974599999583114,2025-01-31,0.1341197286683327,0.6198832253857857,0.0343094624999999,2.275,0.1372813883252692,31.768020833333242,Good
9800 Spittal a.d.Drau,Spittal a. d. Drau Oktoberstraße,46.80138899994929,13.493888999991418,2025-01-31,,16.68881157704847,0.00210371875,14.4349995,,15.744161865140065,Good
9900 Lienz,Lienz Amlacherkreuzung,46.82773199988777,12.765622000005296,2025-01-31,,19.354611497500542,,8.1415,,18.25906745047221,Good
9900 Lienz,Lienz Amlacherkreuzung,46.82773199988777,12.765622000005296,2021-12-30,0.9117602188682612,,,,,10.360911578048423,Good
9900 Lienz,"Lienz Tristacher-See-Straße, Tiefbrunnen",46.81911100012124,12.766025000411428,2025-01-31,,9.265598782873289,0.01343935,,,12.443842592592592,Good
A Coruña,ES0005R,42.72055999946471,-8.92361,2024-01-29,,0.8821343186263855,0.033394625,,0.3167395036678633,30.920949074074073,Good
A Coruña,ES0094A,43.40555554946389,-7.98888888,2024-01-29,0.1745805069617993,1.0628124320799828,0.038203125,2.0,1.373809895426877,35.373263888888886,Good
A Coruña,ES0201A,43.4499999994639,-7.84722222,2024-01-29,0.6634059264548375,9.03390567267985,0.012225,30.0,1.2211643514905577,27.77777777777778,Good
A Coruña,ES1138A,43.367777769464,-8.418888879999999,2024-01-29,0.0960192788289896,10.628124320799827,0.0039221874999999,27.0,0.6487435617293585,25.0,Good
A Coruña,ES1309A,42.9099999994645,-8.50027777,2024-01-29,,,,32.0,,29.62962962962963,Good
A Coruña,ES1798A,43.354166659464,-8.42472222,2024-01-29,,45.16952836339927,,31.0,0.915873263617918,42.612762606980446,Good
A Coruña,ES1867A,43.48055554946381,-8.24138888,2024-01-29,0.1745805069617993,9.565311888719842,0.0183375,23.0,0.4960980177930389,21.296296296296298,Good
A Coruña,ES1868A,42.875833329464506,-8.55916666,2024-01-29,0.4451802927525883,10.628124320799827,0.0269968749999999,29.0,2.6712970188855945,26.85185185185185,Good
A Coruña,ES1901A,42.8877777694645,-8.53083333,2024-01-29,0.2094966083541592,14.879374049119756,0.02445,34.0,0.3816138598407991,31.48148148148148,Good
A Coruña,ES1958A,43.4452777694639,-7.91805555,2024-01-29,,2.1787654857639644,,,0.877711877633838,2.055439137513174,Good
A Coruña,ES1959A,43.4708333294638,-7.84,2024-01-02,,0.5314062160399914,,,1.2211643514905577,1.7445205021293682,Good
A Coruña,ES1960A,43.4927777694638,-8.25027777,2024-01-29,,7.439687024559879,0.021903125,24.0,0.877711877633838,22.22222222222222,Good
A Coruña,ES2039A,43.5198099994638,-8.15019,2024-01-29,,,,15.0,,13.88888888888889,Good
A Coruña,ES2049A,43.1163899994642,-8.35222,2024-01-29,,2.9758748098239507,0.037184375,,0.8395504916497583,34.429976851851855,Good
A Coruña,ES2050A,43.2237999994641,-8.26111,2024-01-29,,2.072484242555966,,,1.5264554393631966,2.1806506276617097,Good
ABANTO Y CIÉRVANA/ABANTO ZIERBENA,ABANTO,43.32051999969036,-3.0741399997553525,2025-01-31,,31.88437296239948,,14.0,4.19775245824879,30.07959713433913,Good
ABANTO Y CIÉRVANA/ABANTO ZIERBENA,LAS CARRERAS,43.31962000025207,-3.097400000151945,2025-01-31,,34.00999782655945,0.003565625,20.0,1.908069299203996,32.08490360996174,Good
ABBAZIA DI SM CERRATE,LECCE - S. M. Cerrate,40.4588900000623,18.11611000040486,2025-01-11,,1.525135840034775,0.0290241874999999,,,26.874247685185093,Good
ABBEVILLE,Due West,34.325298,-82.386101,2017-01-10,,,0.041,,,37.96296296296297,Good
ADA,Garden City,43.647888,-116.269409,2023-05-27,,,,7.0,,6.481481481481482,Good
ADAIR,STILWELL CASTNET & N,35.750599,-94.669701,2023-05-23,,,,16.0,,14.814814814814815,Good
ADAIR,STILWELL CASTNET & N,35.750599,-94.669701,2023-05-30,0.3,,0.057,,0.2,57.53333333333334,Moderate
ADAMS,Adams-Birch,39.8281,-104.93645,2023-05-30,,,,11.0,,10.185185185185185,Good
AGDE,Agathois-piscénois,43.28749999998123,3.5048399998931283,2025-01-31,,2.072484242555966,0.0235840624999999,,,21.837094907407316,Good
AGUASCALIENTES,NTE,21.919917,-102.276083,2024-04-22,,27.5,0.036,46.0,28.8,42.592592592592595,Good
AGUASCALIENTES,PTE,21.87286,-102.32069,2024-01-31,,,0.002,,,1.851851851851852,Good
AGUASCALIENTES,SUR,21.84525,-102.291222,2024-04-03,,,,,0.3459999999999,0.49428571428557144,Good
AGUASCALIENTES,SUR,21.84525,-102.291222,2025-01-20,2.5,11.4,0.011,92.0,,69.31313131313132,Moderate
AGULLANA,AGULLANA (DIPÒSITS D'AIGUA),42.39197568712995,2.8421384121092066,2025-01-31,,,0.0346374999999999,,,32.07175925925917,Good
AGÜIMES,AGÜIMES,27.897638999785578,-15.445027999570131,2025-01-31,,3.188437296239948,0.0387125,26.0,1.5264554393631966,35.844907407407405,Good
AGÜIMES,OBSERVATORIO TEMISAS,27.89980000019183,-15.507930000379709,2025-01-31,,3.188437296239948,0.0387125,21.0,1.5264554393631966,35.844907407407405,Good
AIA,PAGOETA,43.25055554997689,-2.1550000003637773,2025-01-31,0.2007675830060692,1.5942186481199738,0.037184375,12.0,,34.429976851851855,Good
AIR PAYS DE LA LOIRE,NET-FR035A,47.32282599999999,-2.039853,2024-01-29,,,,16.2,,15.0,Good
AIR PAYS DE LA LOIRE,NET-FR035A,47.32282599999999,-2.039853,2024-03-04,,0.9033905672679852,,,0.2671297018885594,0.8522552521396086,Good
AIRVAULT,AIRVAULT - Stade Laillé,46.82379500017337,-0.1356339998719463,2025-01-31,,4.995218430775918,0.0083028125,,0.0,7.687789351851852,Good
AIRVAULT,AIRVAULT - Stade Laillé,46.82379500017337,-0.1356339998719463,2025-01-30,,,,7.7,,7.12962962962963,Good
AIX-EN-PROVENCE,AIX CENTRE ECOLE ART,43.53028499968472,5.440912000080743,2025-01-31,,8.183655727015866,,2.9,,7.720429931147043,Good
AIX-EN-PROVENCE,AIX PLATANES,43.55578000026507,5.461231999605361,2025-01-31,,,0.015790625,,,14.620949074074074,Good
AIX-EN-PROVENCE,AIX ROY RENE,43.524074999856936,5.448163999656443,2025-01-31,,18.864920669419693,,,,17.797094971150653,Good
AIX-EN-PROVENCE,AIX ROY RENE,43.524074999856936,5.448163999656443,2024-12-23,,,,1.8,,1.6666666666666667,Good
AJACCIO,AJACCIO CONFINA 2,41.94768499972929,8.796158999850245,2025-01-31,,1.275374918495979,0.0203240625,,,18.81857638888889,Good
AJACCIO,AJACCIO CONFINA 2,41.94768499972929,8.796158999850245,2025-01-30,,,,5.6,,5.185185185185185,Good
ALAGÓN,ALAGÓN,41.76279999970938,-1.1432999997848563,2025-01-31,0.1745805069617993,3.188437296239948,0.03769375,,1.1448415795223974,34.901620370370374,Good
ALAMEDA,Berkeley Aquatic Par,37.864767,-122.302741,2023-05-30,0.1,2.9,0.028,,,25.925925925925927,Good
ALBA IULIA,AB-1,46.06427499986928,23.563516999652848,2024-09-07,,-0.5314062160399914,-0.000509375,-1.0,-0.3816138598407991,,
ALBACETE,ALBACETE - PARQUE TECNOLOGICO,38.98080000029661,-1.8451999998944624,2025-01-31,0.3578900392716886,6.376874592479895,0.02546875,17.5,0.7632277196815983,23.582175925925927,Good
ALBALAT DELS TARONGERS,ALBALAT DELS TARONGERS,39.70527777026579,-0.3366666603748474,2025-01-31,0.0872902534808996,2.125624864159965,0.035146875,1.0,0.7632277196815983,32.54340277777778,Good
ALBERTA,Athabasca Valley,56.7328,-111.39,2025-01-31,,,0.011,,,10.185185185185185,Good
ALBERTA,Beaverlodge,55.1964,-119.3967,2025-01-31,,,0.027,,,25.0,Good
ALBERTA,Bruderheim,53.800117,-112.927795,2025-01-31,,1.0,0.032,,0.0,29.629629629629633,Good
ALBERTA,Calgary Central2,51.047611,-114.075165,2025-01-31,0.3,4.0,0.032,,,29.629629629629633,Good
ALBERTA,Calgary Northwest,51.0814,-114.1403,2025-01-31,0.4,4.0,0.033,,,30.555555555555557,Good
ALBERTA,Caroline,51.95,-114.7,2025-01-31,,,0.035,,,32.40740740740741,Good
ALBERTA,Carrot Creek,53.6072,-115.8769,2025-01-31,,,0.029,,,26.851851851851855,Good
ALBERTA,Cold Lake South,54.4138,-110.2331,2025-01-31,,,0.032,,,29.629629629629633,Good
ALBERTA,Drayton Valley,53.22,-114.9833,2025-01-31,,3.0,0.031,,0.0,28.703703703703706,Good
ALBERTA,Edmonton East,53.5472,-113.3681,2025-01-31,0.2,2.0,0.033,,0.0,30.555555555555557,Good
ALBERTA,Edson,53.5936,-116.3928,2025-01-31,,2.0,0.029,,,26.851851851851855,Good
ALBERTA,Elk Island,53.6825,-112.8686,2025-01-31,,,0.034,,,31.481481481481485,Good
ALBERTA,Fort Chipewyan,58.7083,-111.1764,2025-01-31,,,0.028,,,25.925925925925927,Good
ALBERTA,Fort McKay,57.1889,-111.6406,2025-01-31,,,0.001,,,0.925925925925926,Good
ALBERTA,Fort Saskatchewan,53.6989,-113.2233,2025-01-31,,,0.033,,,30.555555555555557,Good
ALBERTA,Joussard,55.340367,-115.895667,2025-01-31,,,0.03,,,27.77777777777778,Good
ALBERTA,Lethbridge,49.7164,-112.8006,2025-01-31,,,0.027,,,25.0,Good
ALBERTA,Medicine Hat - Cresc,50.0492,-110.6814,2025-01-31,,,0.039,,,36.111111111111114,Good
ALBERTA,Patricia McInnes,56.7522,-111.4761,2025-01-31,,,0.012,,,11.111111111111112,Good
ALBERTA,RED DEER RIVERSIDE D,52.2989,-113.7942,2025-01-31,,,0.033,,,30.555555555555557,Good
ALBERTA,St. Lina,54.216473,-111.50264,2025-01-31,,1.0,0.033,,0.0,30.555555555555557,Good
ALBERTA,Steeper,53.1325,-117.09111,2025-01-31,,3.0,0.021,,0.0,19.444444444444446,Good
ALBERTA,Syncrude UE1,57.149,-111.642,2025-01-31,,,0.001,,,0.925925925925926,Good
ALBERTA,Wagner2,53.493889,-114.449722,2025-01-31,,1.0,,,0.0,0.9433962264150944,Good
ALBERTVILLE,Albertville,45.67500000012494,6.389722000443968,2025-01-31,,11.531514888067807,0.0035146875,13.6,,12.592592592592592,Good
ALBI,ALBI DELMAS,43.92777000011117,2.1458969996872663,2025-01-31,,3.2415779178439466,,4.9,,4.537037037037037,Good
ALCALÁ DE GUADAIRA,ALCALÁ DE GUADAIRA,37.34246000022681,-5.833719999725691,2025-01-31,0.4722402713316672,10.628124320799827,0.013753125,10.12,2.289683159044795,12.734375,Good
ALCALÁ DE GUADAIRA,LA LIEBRE 2,37.35943999996658,-5.869109999912776,2025-01-20,,20.72484242555966,,26.0,0.3816138598407991,24.074074074074073,Good
ALCALÁ DE HENARES,ALCALÁ DE HENARES,40.4793280001707,-3.377948999949266,2025-01-31,0.3491610139235987,34.00999782655945,0.00101875,32.0,2.289683159044795,32.08490360996174,Good
ALCANAR,ALCANAR (LLAR DE JUBILATS),40.55281947383771,0.5299825275841532,2025-01-31,,2.125624864159965,,,,2.0053064756226084,Good
ALCANTARILLA,ALCANTARILLA,37.97449999979276,-1.2320999999425766,2025-01-31,,19.44946750706368,0.0168603125,11.88,0.915873263617918,18.34855425194687,Good
ALCANTARILLA,ALCANTARILLA,37.97555555001623,-1.2308333295778884,2024-08-30,,4.357530971527929,0.0410046875,25.23,1.4501326673950368,37.96730324074074,Good
ALCOBENDAS,ALCOBENDAS,40.540350999742536,-3.645253000245664,2025-01-31,,42.51249728319931,0.0020375,12.0,,40.10612951245218,Good
ALCORA (L'),ALCORA,40.05194443996023,-0.1897222197972554,2025-01-31,0.0872902534808996,3.188437296239948,0.0163,17.0,0.3816138598407991,15.74074074074074,Good
ALCORCÓN,ALCORCÓN,40.34189999984471,-3.833700000411672,2025-01-31,,24.976092153879588,0.013243749999999999,,,23.56235108856565,Good
ALCOVER,ALCOVER (MESTRAL),41.27838109525224,1.1799165821187587,2025-01-31,,9.03390567267985,,,0.7632277196815983,8.522552521396085,Good
ALCOVER,ALCOVER (MESTRAL),41.27838109525224,1.1799165821187587,2021-01-28,,,0.030053125,,,27.826967592592595,Good
ALCOVER,ALCOVER (MESTRAL),41.27838109525224,1.1799165821187587,2023-12-11,0.1745805069617993,,,,,1.9838693972931738,Good
ALCOY/ALCOI,ALCOI - VERGE DELS LLIRIS,38.70638888033618,-0.4669444400938713,2025-01-31,0.0872902534808996,3.7198435122799394,0.03361875,,1.1448415795223974,31.128472222222225,Good
ALCÚDIA,S'ALBUFERA,39.79116700017772,3.0752500003412293,2025-01-31,,1.0628124320799828,0.0346374999999999,6.0,1.4501326673950368,32.07175925925917,Good
ALEXANDER,Taylorsville Liledou,35.9138,-81.191,2023-05-30,,,0.043,10.0,,39.81481481481482,Good
ALEXANDRIA,TR-1,43.98037500013416,25.312474999843086,2024-09-07,,-0.5314062160399914,-0.000509375,-1.0,-0.3816138598407991,,
ALEXANDRIA,TR-1,43.98037500013416,25.312474999843086,2024-09-06,,-0.5314062160399914,-0.000509375,-1.0,-0.3816138598407991,,
ALFARO,ALFARO,42.17599999979858,-1.7439999996095104,2025-01-30,,0.7971093240599869,0.0173187499999999,6.0,0.0381613859840799,16.035879629629537,Good
ALFARO,ALFARO,42.17599999979858,-1.7439999996095104,2024-02-26,0.3491610139235987,,,,,3.967738794586349,Good
ALGAR DE PALANCIA,ALGAR DE PALÀNCIA,39.78222221990641,-0.3591666599899315,2025-01-31,,2.125624864159965,0.03361875,1.0,1.1448415795223974,31.128472222222225,Good
ALGAR DE PALANCIA,ALGAR DE PALÀNCIA,39.78222221990641,-0.3591666599899315,2022-10-11,0.0872902534808996,,,,,0.9919346986465863,Good
ALGECIRAS,ALGECIRAS EPS,36.13623000002991,-5.453430000208752,2025-01-31,0.7829935737236701,15.94218648119974,0.0101875,8.05,0.7632277196815983,15.039798567169566,Good
ALGECIRAS,E4:RINCONCILLO,36.16170000001886,-5.44260000007662,2025-01-31,,4.782655944359921,,,2.6712970188855945,4.511939570150869,Good
ALGECIRAS,E4:RINCONCILLO,36.16170000001886,-5.44260000007662,2023-01-19,,,,30.51,,28.25,Good
ALGETE,ALGETE,40.59969999990429,-3.503300000035256,2025-01-31,,3.188437296239948,0.040240625,,,37.25983796296297,Good
ALICANTE/ALACANT,ALACANT - RABASSA,38.35111111026972,-0.5138888795874427,2025-01-31,0.0872902534808996,1.5942186481199738,0.038203125,1.0,1.1448415795223974,35.373263888888886,Good
ALICANTE/ALACANT,ALACANT-EL PLÁ,38.3594444399257,-0.4719444396090833,2025-01-31,0.0872902534808996,4.251249728319931,0.030053125,,1.1448415795223974,27.826967592592595,Good
ALICANTE/ALACANT,ALACANT-FLORIDA-BABEL,38.34027776983541,-0.5066666600617262,2025-01-31,,3.188437296239948,0.035146875,,1.1448415795223974,32.54340277777778,Good
ALLEGANY,Horse Rock,39.4452,-79.0691,2020-05-08,,,,,1.0,1.4285714285714286,Good
ALLEGANY,Moran,39.4864,-79.0638,2020-05-08,,,,,0.0,0.0,Good
ALMAZORA/ALMASSORA,ALMASSORA-C. P. OCHANDO,39.94527776997731,-0.0563888799281077,2025-01-31,0.0872902534808996,6.908280808519887,0.0224125,11.0,4.19775245824879,20.752314814814813,Good
ALMERÍA,EL BOTICARIO,36.864950000019945,-2.390499999628812,2025-01-31,,2.125624864159965,0.037184375,,1.1448415795223974,34.429976851851855,Good
ALMERÍA,MEDITERRÁNEO,36.841329999668325,-2.446719999876766,2025-01-31,0.3360674759014637,2.657031080199957,0.0346374999999999,4.12,,32.07175925925917,Good
ALMERÍA,MEDITERRÁNEO,36.841329999668325,-2.446719999876766,2020-07-04,,,,,0.7632277196815983,1.0903253138308548,Good
ALMERÍA,PUERTO DE ALMERÍA,36.836799999696574,-2.4778999996707443,2025-01-31,,,,2.97,,2.75,Good
ALMONTE,DOÑANA,37.051939999708864,-6.554999999551666,2025-01-31,,3.592306020430341,0.01762946875,,0.3968784142344311,16.323582175925925,Good
ALMONTE,MATALASCAÑAS,37.01610000014102,-6.570420000018501,2025-01-31,,3.188437296239948,0.000509375,4.28,1.1448415795223974,3.9629629629629632,Good
ALTSASU/ALSASUA,ALSASUA,42.89799999987766,-2.1730000000558443,2025-01-31,0.4364512674044984,12.75374918495979,0.0290343749999999,6.0,0.7632277196815983,26.883680555555465,Good
ALZIRA,ALZIRA,39.15000000023167,-0.4577777704232834,2025-01-31,0.0872902534808996,5.845468376439904,0.0224125,,1.1448415795223974,20.752314814814813,Good
AMADOR,Jackson - Clinton,38.34,-120.7625,2019-04-18,,,0.027,,,25.0,Good
AMADOR,Jackson - Clinton,38.342606,-120.764426,2023-05-30,,,0.043,,,39.81481481481482,Good
AMBÈS,AMBES,45.0147800000761,-0.5339420004209319,2025-01-31,,3.932405998695936,0.0163509375,,,15.139756944444445,Good
AMETLLA DE MAR (L'),L'AMETLLA DE MAR (DEIXALLERIA),40.902692904336895,0.8097954307696764,2025-01-31,,1.0628124320799828,,,1.1448415795223974,1.635487970746282,Good
AMETLLA DE MAR (L'),L'AMETLLA DE MAR (DEIXALLERIA),40.902692904336895,0.8097954307696764,2018-12-03,0.1745805069617993,,,,,1.9838693972931738,Good
AMIENS,St Pierre Amiens,49.90167000014326,2.3045969997870466,2025-01-31,,13.763420995435776,,12.6,,12.984359429656394,Good
AMIENS,St Pierre Amiens,49.90167000014326,2.3045969997870466,2025-01-21,,,0.0085575,,,7.923611111111111,Good
AMIENS,TRAFIC AMIENS,49.877220000238864,2.282499999679778,2017-12-13,,13.99192566833297,,,,13.19992987578582,Good
AMIENS,TRAFIC AMIENS,49.877220000238864,2.282499999679778,2018-01-05,,,,24.73,,22.89814814814815,Good
AMOREBIETA-ETXANO,ZELAIETA,43.21900999982109,-2.7345300003689346,2025-01-31,0.270599785790789,13.816561617039774,,12.0,2.6712970188855945,13.034492091546957,Good
AMPOSTA,AMPOSTA (SANT DOMÈNEC - ITÀLIA),40.70670876089319,0.5816514820413861,2024-08-13,,1.0628124320799828,0.03565625,23.0,,33.0150462962963,Good
ANCHORAGE,Palmer,61.599,-149.104,2018-07-12,,,,0.0,,0.0,Good
ANDERSON,Garrison Arena,34.635958,-82.810667,2023-05-30,,,0.043,,,39.81481481481482,Good
ANDOAIN,ANDOAIN,43.221300000025856,-2.023279999710612,2025-01-31,,32.41577917843947,0.001528125,12.0,0.7632277196815983,30.580923753244786,Good
ANDREW,Savannah,39.9544,-94.849,2023-05-30,,,0.054,,,50.0,Good
ANGERS,APPENTIS,47.44739000016663,-0.5500669996210582,2025-01-31,,9.512171267115844,0.0082518749999999,,,8.973746478411174,Good
ANGERS,BEAUX ARTS,47.46851299991581,-0.5560529998735877,2025-01-31,,10.36242121277983,,12.5,,11.574074074074074,Good
ANGERS,ROI RENE,47.46699000003936,-0.5546860002680776,2025-01-31,,22.47848293849163,,,,21.206115979709086,Good
ANGERS,ROI RENE,47.46699000003936,-0.5546860002680776,2025-01-30,,,,8.7,,8.055555555555555,Good
ANGLET,ANGLET,43.49404000017032,-1.5287529999219422,2025-01-31,,23.275592262551616,,,,21.958105908067562,Good
ANGLET,ANGLET,43.49404000017032,-1.5287529999219422,2025-01-30,,,,27.0,,25.0,Good
ANGOULÊME,ANGOULEME-GAMBETTA,45.65146300022503,0.1623909997358011,2025-01-31,,20.19343620951967,,,,19.050411518414784,Good
ANGOULÊME,ANGOULEME-GAMBETTA,45.65146300022503,0.1623909997358011,2025-01-30,,,,12.0,,11.11111111111111,Good
ANGOULÊME,Square Pablo Casals,45.64742699984042,0.1671619998204699,2025-01-31,,15.729623994783744,0.0006621875,12.0,,14.839267919607305,Good
ANNE ARUNDEL,Downs Park,39.109951,-76.433073,2018-08-29,,,0.021,,,19.444444444444446,Good
ANNECY,ANNECY Rocade,45.90969999998834,6.118249999587261,2025-01-31,,17.908389480547704,,,,16.894707057120478,Good
ANNECY,ANNECY Rocade,45.90969999998834,6.118249999587261,2025-01-30,,,,10.7,,9.907407407407407,Good
ANNECY,LOVERCHY,45.89527999992216,6.118333000326252,2025-01-31,,16.898717670071726,0.0006112499999999,,,15.942186481199741,Good
ANNECY,LOVERCHY,45.89527999992216,6.118333000326252,2025-01-30,,,,18.9,,17.5,Good
ANNECY,NOVEL,45.91694300011561,6.135556000416689,2025-01-31,,,0.0015790625,,,1.4620949074074074,Good
ANNECY,NOVEL,45.91694300011561,6.135556000416689,2022-12-20,,,,9.8,,9.074074074074074,Good
ANNECY,NOVEL,45.91694300011561,6.135556000416689,2025-01-28,,2.4444685937839594,,,,2.3061024469659994,Good
ANNEMASSE,ANNEMASSE,46.195829999916846,6.240556000117605,2025-01-31,,18.3335144533797,0.001731875,17.6,,17.295768352245,Good
ANTIBES,ANTIBES JEAN MOULIN,43.59880400013274,7.093153000190616,2025-01-31,,5.686046511627906,0.0272515625,,,25.23292824074074,Good
APT,APT,43.8801200000807,5.362038000231918,2025-01-31,,,0.011919375,,,11.036458333333334,Good
ARAD,AR-1,46.18113599987398,21.33501899959741,2024-01-29,1.1197747783827203,,,,,12.724713390712731,Good
ARAD,AR-1,46.18113599987398,21.33501899959741,2024-09-07,,6.10382357128885,,23.71309,3.2358996855002347,21.956564814814815,Good
ARAD,AR-1,46.18113599987398,21.33501899959741,2024-09-06,,5.310924206694196,,25.36111,3.8599360394880606,23.48250925925926,Good
ARAD,AR-1,46.18113599987398,21.33501899959741,2024-03-11,0.0942855110853266,,,,,1.0714262623332567,Good
ARAD,AR-2,46.190463999740246,21.302533000297284,2024-09-07,,7.115033271354054,0.0273410000396875,35.3722229,3.576398468081785,32.75205824074074,Good
ARAD,AR-2,46.190463999740246,21.302533000297284,2024-03-11,0.1748033764369868,,,,,1.986402004965759,Good
ARAFO,LA HIDALGA-ARAFO,28.337219999882237,-16.399720000428815,2025-01-31,0.523741520885398,3.188437296239948,0.044315625,20.0,2.289683159044795,41.032986111111114,Good
ARANDA DE DUERO,ARANDA DE DUERO 2,41.66555554983708,-3.688888879869123,2025-01-31,,10.096718104759836,0.025978125,11.0,0.7632277196815983,24.053819444444446,Good
ARANDA DE DUERO,ARANDA DE DUERO 2,41.66555554983708,-3.688888879869123,2024-01-02,0.8729025348089968,,,,,9.919346986465873,Good
ARANJUEZ,ARANJUEZ,40.033269999855605,-3.5913999996859247,2025-01-31,,23.913279721799604,0.008404687499999999,9.5,,22.559697850754343,Good
ARAPAHOE,Aurora East,39.638542,-104.569061,2023-05-30,,,0.043,,,39.81481481481482,Good
ARCHULETA,7004,37.205862,-107.254118,2023-05-30,,0.5,0.048,,0.8,44.44444444444445,Good
ARCOS DE LA FRONTERA,ARCOS,36.739750000124495,-5.74372000036704,2025-01-31,0.1431560157086754,1.5942186481199738,0.0305625,,0.7632277196815983,28.29861111111111,Good
AREA AIAS - Melfi (PZ),MELFI,40.98410000015166,15.639964999778826,2024-11-25,0.3002784719742948,0.962376657248424,0.0319204937499999,,0.454120493210551,29.55601273148139,Good
ARGANDA DEL REY,ARGANDA DEL REY,40.300694399767934,-3.458830560184934,2025-01-31,,29.22734188219952,0.007640625,8.0,,27.57296403981087,Good
ARGENTEUIL,ARGENTEUIL,48.95138999983726,2.223610999619816,2025-01-31,,26.03890458595957,,,,24.565004326376954,Good
ARICO,SAN MIGUEL DE TAJAO,28.111373000106347,-16.471624999660843,2025-01-31,,3.188437296239948,,26.0,0.3816138598407991,24.074074074074073,Good
ARLES,Arles,43.67511399992982,4.629210000223411,2025-01-31,,5.632905890023907,0.023125625,6.0,,21.412615740740744,Good
ARMILLA,CIUDAD DEPORTIVA,37.13559999989919,-3.6192999997476183,2025-01-31,0.1422831131738664,0.5314062160399914,0.0295437499999999,7.42,1.1448415795223974,27.355324074073984,Good
ARONA,EL RÍO,28.1450929997199,-16.523687000292544,2025-01-31,,3.188437296239948,0.036675,18.0,1.5264554393631966,33.958333333333336,Good
ARONA,GALLETAS,28.00773799961548,-16.655913000385684,2025-01-31,,3.7198435122799394,0.044825,19.0,0.3816138598407991,41.504629629629626,Good
AROOSTOOK,Ashland,46.604,-68.4135,2022-05-11,,,0.042,,,38.88888888888889,Good
AROOSTOOK,MICMAC,46.6964,-68.033096,2023-05-30,0.1,4.7,0.036,,0.0,33.333333333333336,Good
AROOSTOOK,Madawaska PSB,47.3553,-68.3211,2023-05-30,,,,20.0,,18.51851851851852,Good
AROOSTOOK,Presque Isle Riversi,46.682299,-68.016195,2023-05-30,,,,27.0,,25.0,Good
ARRASATE O MONDRAGÓN,ARRASATE,43.06419999979277,-2.4904000002554043,2025-01-31,0.279328811138879,18.0678113453597,,20.0,,18.51851851851852,Good
ARRECIFE,ARRECIFE,28.97699000030685,-13.547584000367408,2025-01-31,0.3491610139235987,3.188437296239948,0.048390625,,3.052910878726393,44.80613425925926,Good
ARRECIFE,ARRECIFE,28.97699000030685,-13.547584000367408,2025-01-28,,,,15.0,,13.88888888888889,Good
ARRECIFE,CIUDAD DEPORTIVA-ARRECIFE,28.96786999995438,-13.5558560001173,2025-01-31,,3.188437296239948,0.04075,13.0,2.289683159044795,37.73148148148149,Good
ARREST,Arrest,50.129447999789626,1.6108329998832078,2025-01-31,,,0.0292381249999999,7.7,,27.072337962962873,Good
ARRÚBAL,ARRÚBAL,42.43999999971846,-2.239000000124511,2025-01-31,,4.623234079547924,0.032090625,8.0,0.5724207897611987,29.713541666666668,Good
ARRÚBAL,ARRÚBAL,42.43999999971846,-2.239000000124511,2025-01-30,0.0872902534808996,,,,,0.9919346986465863,Good
ARTEIXO,CENTRO CIVICO,43.3022999997326,-8.506000000111525,2025-01-31,,17.004998913279724,0.012225,,1.1066801935383177,16.04245180498087,Good
ARTEIXO,PARQUE DA CEGA,43.34304999976863,-8.449139999630976,2025-01-31,,17.536405129319714,,23.0,0.3816138598407991,21.296296296296298,Good
ARTEIXO,PASTORIZA-REPSOL,43.33530000013568,-8.471999999994487,2025-01-31,,6.908280808519887,,13.0,0.4960980177930389,12.037037037037036,Good
ARTEIXO,SABÓN-EMBALSE,43.32229999978287,-8.49970000003964,2025-01-31,,,,27.0,,25.0,Good
ARUCAS,POLIDEPORTIVO AFONSO-ARUCAS,28.11126600032864,-15.520923999810469,2025-01-31,,3.188437296239948,0.044825,23.0,2.289683159044795,41.504629629629626,Good
ASHLAND,Bad River Tribal Sch,46.6144,-90.6986,2023-05-30,,,0.057,,,57.53333333333334,Moderate
ASTILLERO (EL),ESTACIÓN DEL MEDITERRANEO,43.40443999978843,-3.841940000374513,2025-01-31,0.523741520885398,9.565311888719842,0.02445,14.0,0.0,22.63888888888889,Good
ATAZAR (EL),EL ATAZAR,40.90899999997736,-3.4678999998024302,2025-01-31,0.3491610139235987,0.5314062160399914,0.042278125,5.0,1.908069299203996,39.14641203703704,Good
ATMO AUVERGNE-RHÔNE-ALPES,NET-FR071A,45.772167,3.0875,2024-02-05,,,,0.1,,0.0925925925925926,Good
ATMO AUVERGNE-RHÔNE-ALPES,NET-FR071A,45.772167,3.0875,2024-02-15,,35.97620082590741,0.0024449999999999,,,33.93981209991265,Good
ATMO BOURGOGNE-FRANCHE-COMTE,NET-FR076A,46.67130699999999,5.556806000000001,2024-03-04,,,0.02709875,,,25.091435185185187,Good
ATMO GRAND EST,NET-FR075A,48.575985,7.727478,2024-02-05,,15.729623994783744,,25.6,,23.703703703703706,Good
ATMO GRAND EST,NET-FR075A,48.68870999999999,6.15426,2024-03-04,,7.492827646163877,,,,7.068705326569695,Good
ATMO GRAND EST,NET-FR075A,49.19539,6.957444000000001,2024-01-31,,2.072484242555966,,,,1.9551738137320436,Good
ATMO GRAND EST,NET-FR075A,49.19539,6.957444000000001,2020-02-10,,,0.0489,,,45.27777777777778,Good
ATMO HAUTS DE FRANCE,NET-FR074A,49.9025,2.3046,2024-03-04,,17.111280156487723,0.0019356249999999,16.1,,16.142717128762005,Good
ATMO NORMANDIE,NET-FR069A,49.40051999999999,1.098825,2024-01-29,,,,15.2,,14.074074074074073,Good
ATMO NORMANDIE,NET-FR069A,49.40051999999999,1.098825,2024-03-04,,16.048467724407736,0.0005603125,,,15.140063890950694,Good
ATMO NORMANDIE,NET-FR069A,49.40051999999999,1.098825,2018-01-17,,,,,0.5075464335882629,0.7250663336975185,Good
ATMO NORMANDIE,NET-FR069A,49.44246,1.093694,2024-03-04,,20.777983047163666,0.0003565624999999,13.7,0.1908069299203995,19.601870799211007,Good
ATMO NOUVELLE-AQUITAINE,NET-FR058A,43.310833,-0.391111,2024-03-04,,13.072592914583788,0.0134474999999999,4.8,,12.451388888888797,Good
ATMO NOUVELLE-AQUITAINE,NET-FR058A,43.310833,-0.391111,2019-01-14,,,,,0.3052910878726393,0.4361301255323419,Good
ATMO NOUVELLE-AQUITAINE,NET-FR058A,43.37611,-0.536944,2024-03-04,,10.946968050423822,0.0083028125,6.9,-0.0381613859840799,10.327328349456435,Good
ATMO NOUVELLE-AQUITAINE,NET-FR058A,43.376945,-0.609444,2024-03-04,,2.231906107367964,,,0.0,2.1055717994037395,Good
ATMO NOUVELLE-AQUITAINE,NET-FR058A,43.40972,-0.671667,2024-03-04,,,,,0.4197752458248791,0.5996789226069701,Good
ATMO NOUVELLE-AQUITAINE,NET-FR058A,43.410557,-0.616944,2024-03-04,,6.80199956531189,,,0.0763227719681598,6.416980721992349,Good
ATMO NOUVELLE-AQUITAINE,NET-FR058A,43.43416599999999,-0.691944,2024-03-04,,,,,0.5724207897611987,0.817743985373141,Good
ATMO NOUVELLE-AQUITAINE,NET-FR058A,43.47972,-1.488056,2024-03-04,,7.758530754183872,0.0257234374999999,2.4,,23.817997685185095,Good
ATMO NOUVELLE-AQUITAINE,NET-FR058A,43.49416699999998,-1.5277780000000003,2024-03-04,,17.536405129319714,,3.3,,16.543778423886522,Good
ATMO NOUVELLE-AQUITAINE,NET-FR058A,43.838333,-0.810833,2024-03-04,,,,3.4,-0.877711877633838,3.148148148148148,Good
ATMO NOUVELLE-AQUITAINE,NET-FR058A,44.508656,0.142503,2024-03-04,,17.748967615735708,,9.8,,16.744309071448782,Good
ATMO NOUVELLE-AQUITAINE,NET-FR058A,44.80055599999999,-0.588056,2024-03-01,,3.3478591610519453,0.0402915624999999,7.9,,37.307002314814724,Good
ATMO NOUVELLE-AQUITAINE,NET-FR058A,44.84138999999998,-0.65,2024-03-04,,18.81178004781569,,6.9,,17.746962309260088,Good
ATMO NOUVELLE-AQUITAINE,NET-FR058A,44.86138999999999,-0.579444,2024-03-04,,12.647467941751792,0.0137021874999999,10.8,,12.687210648148056,Good
ATMO NOUVELLE-AQUITAINE,NET-FR058A,44.86555499999999,-0.939444,2024-03-04,,1.3816561617039775,0.0211390625,,,19.57320601851852,Good
ATMO NOUVELLE-AQUITAINE,NET-FR058A,44.90027599999999,-0.514722,2024-03-04,,19.927733101499676,0.0127853125,7.5,0.1526455439363196,18.799748208961958,Good
ATMO NOUVELLE-AQUITAINE,NET-FR058A,45.012222,-0.5283330000000002,2024-01-29,,,0.0264365625,,,24.478298611111114,Good
ATMO NOUVELLE-AQUITAINE,NET-FR058A,45.012222,-0.5283330000000002,2024-03-04,,10.202999347967832,,,,9.625471082988522,Good
ATMO NOUVELLE-AQUITAINE,NET-FR058A,45.18972,0.727222,2024-03-04,,8.130515105411867,0.003565625,8.7,,8.055555555555555,Good
ATMO NOUVELLE-AQUITAINE,NET-FR058A,45.25999999999999,1.76,2024-03-04,,5.048359052379918,0.002546875,3.0,,4.762602879603696,Good
ATMO NOUVELLE-AQUITAINE,NET-FR058A,45.809998,2.0600000000000005,2024-03-04,,,0.0369806249999999,,,34.24131944444435,Good
ATMO NOUVELLE-AQUITAINE,NET-FR058A,45.83333199999999,1.216803,2024-03-04,,12.381764833731795,,7.5,,11.680910220501694,Good
ATMO NOUVELLE-AQUITAINE,NET-FR058A,45.86999500000001,1.31,2024-03-04,,,0.007233125,11.6,,10.74074074074074,Good
ATMO NOUVELLE-AQUITAINE,NET-FR058A,45.88999999999999,0.9,2024-03-04,,6.323733970875896,0.0036674999999999,8.8,0.1144841579522397,8.148148148148149,Good
ATMO NOUVELLE-AQUITAINE,NET-FR058A,46.143173,-0.396042,2024-03-04,,0.4251249728319931,0.0159943749999999,7.3,,14.80960648148139,Good
ATMO NOUVELLE-AQUITAINE,NET-FR058A,46.162556,-1.153603,2024-03-04,,11.425233644859812,0.0184903124999999,11.6,,17.120659722222133,Good
ATMO NOUVELLE-AQUITAINE,NET-FR058A,46.17,1.87,2024-03-04,,26.09204520756357,0.0014262499999999,6.6,,24.61513698826752,Good
ATMO NOUVELLE-AQUITAINE,NET-FR058A,46.58389,0.345556,2024-03-04,0.4303409496608354,19.236905020647686,0.0038203125,15.5,,18.14802360438461,Good
ATMO NOUVELLE-AQUITAINE,NET-FR058A,46.58691799999999,0.358583,2024-03-04,,11.478374266463812,0.008048125,11.4,,10.828654968362086,Good
ATMO NOUVELLE-AQUITAINE,NET-FR058A,46.5909,0.3404,2024-03-04,,25.560638991523582,,28.9,,26.75925925925926,Good
ATMO OCCITANIE,NET-FR068A,42.6958,2.8997,2024-03-04,,6.589437078895893,0.0392728125,5.4,,36.36371527777778,Good
ATMO OCCITANIE,NET-FR068A,43.09444,0.744722,2024-03-04,,,,,-0.1526455439363196,,
ATMO OCCITANIE,NET-FR068A,43.096943,-0.038889,2024-03-04,,1.966202999347968,0.04401,1.0,,40.75,Good
ATMO OCCITANIE,NET-FR068A,43.106388,0.718889,2024-03-04,,,,,0.0,0.0,Good
ATMO OCCITANIE,NET-FR068A,43.230278,0.062222,2024-03-04,,12.594327320147793,0.0104421875,9.4,,11.881440868063956,Good
ATMO OCCITANIE,NET-FR068A,43.287758,3.504831,2024-03-04,,2.4444685937839594,0.0313265625,,,29.006076388888893,Good
ATMO OCCITANIE,NET-FR068A,43.45749699999999,1.571111,2024-03-04,,,0.0231765624999999,,,21.459780092592503,Good
ATMO OCCITANIE,NET-FR068A,43.556946,1.406389,2024-03-04,,,,15.4,,14.25925925925926,Good
ATMO OCCITANIE,NET-FR068A,43.57060599999999,3.911556,2024-03-04,,,0.0251121875,,,23.252025462962965,Good
ATMO OCCITANIE,NET-FR068A,43.57555800000001,1.418611,2024-03-04,,33.319169745707455,0.0016809374999999,10.7,,31.433179005384392,Good
ATMO OCCITANIE,NET-FR068A,43.58722,1.443889,2024-03-04,,12.70060856335579,0.018846875,4.5,,17.450810185185187,Good
ATMO OCCITANIE,NET-FR068A,43.58722,1.443889,2018-07-06,,,,,0.3243717808646792,0.46338825837811315,Good
ATMO OCCITANIE,NET-FR068A,43.60499999999999,3.8746,2024-03-04,,11.478374266463812,,,,10.828654968362086,Good
ATMO OCCITANIE,NET-FR068A,43.609974,3.898611,2024-03-04,,,,11.8,,10.925925925925927,Good
ATMO OCCITANIE,NET-FR068A,43.609974,3.898611,2023-04-26,,227.33557922190823,,,,124.90132579873939,Unhealthy for Sensitive Groups
ATMO OCCITANIE,NET-FR068A,43.61055799999999,2.23,2024-03-04,,4.410671593131928,0.028830625,6.3,,26.69502314814815,Good
ATMO OCCITANIE,NET-FR068A,43.611668,3.864722,2024-03-04,,11.159530536839815,,,,10.527858997018694,Good
ATMO OCCITANIE,NET-FR068A,43.630280000000006,0.179722,2024-03-01,,0.1594218648119973,0.037184375,5.4,,34.429976851851855,Good
ATMO OCCITANIE,NET-FR068A,43.634003,1.3759999999999997,2024-01-29,,6.483155835687893,,,,6.116184750648956,Good
ATMO OCCITANIE,NET-FR068A,43.634003,1.3759999999999997,2024-03-04,,,,10.8,,10.0,Good
ATMO OCCITANIE,NET-FR068A,43.64305499999999,1.46765,2024-03-04,,44.37241903933928,,28.6,,41.86077267862196,Good
ATMO OCCITANIE,NET-FR068A,43.69536599999999,3.800817,2024-03-04,,,0.0290853125,,,26.93084490740741,Good
ATMO OCCITANIE,NET-FR068A,43.69536599999999,3.800817,2019-06-04,,,,13.7,,12.685185185185185,Good
ATMO OCCITANIE,NET-FR068A,43.80389,1.595833,2024-03-04,,,,4.1,,3.796296296296296,Good
ATMO OCCITANIE,NET-FR068A,43.83440399999999,4.374219,2024-03-04,,7.014562051727884,0.02587625,4.6,,23.95949074074074,Good
ATMO OCCITANIE,NET-FR068A,43.88361,0.845,2024-03-04,,,0.0311737499999999,,,28.864583333333243,Good
ATMO OCCITANIE,NET-FR068A,43.928055,2.146111,2024-03-04,,9.405890023907846,,6.9,,8.873481154630044,Good
ATMO OCCITANIE,NET-FR068A,43.928055,2.146111,2019-06-01,,,0.0117665625,,,10.894965277777779,Good
ATMO OCCITANIE,NET-FR068A,43.942886,4.679686,2024-03-04,,,0.030256875,,,28.015625,Good
ATTON,Atton,48.88638699976619,6.093610999889592,2025-01-31,,24.178982829819603,,,,22.810361160207172,Good
ATTON,Atton,48.88638699976619,6.093610999889592,2019-06-11,,,,,0.877711877633838,1.2538741109054827,Good
ATTON,Atton,48.88638699976619,6.093610999889592,2019-08-22,,,,1.4,,1.2962962962962963,Good
AUBAGNE,AUBAGNE LES PASSONS,43.29313700012445,5.574184000287346,2025-01-31,,11.637796131275808,0.0175734375,,,16.27170138888889,Good
AUBERVILLIERS,AUBERVILLIERS,48.90389999975663,2.384700000047436,2025-01-31,,38.31438817648337,,,,36.14564922309752,Good
AUBERVILLIERS,AUBERVILLIERS,48.90389999975663,2.384700000047436,2021-01-04,0.1833095323098893,,,,0.0,2.083062867157833,Good
AURILLAC,Aurillac-Lagarde,44.92008000008151,2.4410819997787825,2025-01-31,,9.884155618343838,0.0038203125,9.2,,9.32467511164513,Good
AUXERRE,Auxerre,47.800575000294266,3.5761890003547787,2025-01-31,,,0.0094234375,12.6,,11.666666666666666,Good
AVERY,Cranberry,36.1058,-82.0454,2022-05-11,,,0.038,,,35.18518518518518,Good
AVERY,Linville Falls,35.9722,-81.9331,2019-08-12,,,0.042,,,38.88888888888889,Good
AVERY,Linville Falls,35.972347,-81.933072,2023-05-30,,,0.039,,,36.111111111111114,Good
AVIGNON,AVIGNON   MAIRIE,43.94967299990632,4.804340999845071,2025-01-31,,3.188437296239948,,3.5,,3.240740740740741,Good
AVIGNON,AVIGNON   MAIRIE,43.94967299990632,4.804340999845071,2024-07-23,,,0.0462003124999999,,,42.77806712962954,Good
AVIGNON,Avignon Rocade De Gaulle,43.93140000020946,4.826874999795343,2025-01-31,,4.144968485111932,,,,3.910347627464087,Good
AVIGNON,Avignon Rocade De Gaulle,43.93140000020946,4.826874999795343,2025-01-30,,,,16.4,,15.185185185185183,Good
AVILÉS,LLANOPONTE,43.55120000028743,-5.919699999560351,2025-01-31,,17.004998913279724,0.0020375,12.0,4.960980177930389,16.04245180498087,Good
AVILÉS,LLARANES,43.5502999998922,-5.898899999636708,2025-01-31,,7.439687024559879,0.003565625,10.0,1.5264554393631966,9.25925925925926,Good
AVILÉS,MATADERO,43.57920000015704,-5.927300000188912,2022-01-10,0.2356836843984291,6.376874592479895,,,3.816138598407992,6.015919426867826,Good
AVILÉS,MATADERO,43.57920000015704,-5.927300000188912,2025-01-15,,,,137.0,,91.58585858585859,Moderate
AVILÉS,PLAZA DE LA GUITARRA,43.55890000011564,-5.927500000205453,2025-01-31,0.549928596929668,15.410780265159747,0.000509375,13.0,,14.538471948263913,Good
AVILÉS,PLAZA DE LA GUITARRA,43.55890000011564,-5.927500000205453,2024-01-02,,,,,0.7632277196815983,1.0903253138308548,Good
AVILÉS,SALINAS,43.5704999997927,-5.958300000057835,2025-01-31,0.1396644055694395,10.628124320799827,0.000509375,6.0,,10.026532378113044,Good
AYTRÉ,Aytré,46.13513600007733,-1.1170860000692169,2025-01-31,,22.10649858726364,0.0023431249999999,,,20.855187346475134,Good
AYTRÉ,Aytré,46.13513600007733,-1.1170860000692169,2025-01-30,,,,10.4,,9.62962962962963,Good
AZPEITIA,AZPEITIA,43.18039999986543,-2.268199999844564,2025-01-31,,15.94218648119974,0.012734375,13.0,,15.039798567169566,Good
AZUQUECA DE HENARES,AZUQUECA - IES,40.56840000025621,-3.2702000000703983,2025-01-31,,21.25624864159965,0.0061125,,1.1448415795223974,20.053064756226085,Good
Aachen,Aachen Wilhelmstraße,50.7731259998019,6.095760000017918,2025-01-31,,21.494318626385567,,12.637,,20.27765908149582,Good
Aachen,Aachen-Burtscheid,50.7547290001636,6.093825999974747,2025-01-31,,7.246255161921321,0.021435009375,16.852,,19.84723090277778,Good
Aalen,Aalen,48.84791699972843,10.096291999638863,2025-01-31,,8.604529450119541,0.025124921875,5.6,2.022553457156236,23.263816550925927,Good
Aalen,Aalen,48.84791699972843,10.096291999638863,2017-01-08,0.3491610139235987,,,,,3.967738794586349,Good
Aarschot,42N035 - AARSCHOT,50.97757733490418,4.837618376282942,2025-01-31,,12.488046076939794,0.013753125,23.4,,21.666666666666664,Good
Aarschot,42N035 - AARSCHOT,50.97757733490418,4.837618376282942,2020-01-24,,,,,0.0,0.0,Good
Aberdeen,Aberdeen Union Street Roadside - UKA00513,57.14455499959598,-2.1064719999075763,2025-01-06,,18.496921864811995,,,,17.449926287558487,Good
Aberdeen,Aberdeen Wellington Road - UKA00615,57.133887999579215,-2.0941980001770406,2025-01-31,,9.451723810041296,,,,8.916720575510656,Good
Abu Al Abyad,E11+Road,24.035099,53.88529,2024-05-20,0.3404319885755087,8.55032601608346,,110.0,6.777462150772593,78.22222222222223,Moderate
Abu Dhabi,Al Mafraq,24.28697,54.58610000000001,2024-05-20,,15.19290371658335,,193.0,0.5686046511627908,119.8080808080808,Unhealthy for Sensitive Groups
Abu Dhabi,Al Maqtaa,24.40349,54.51599,2024-05-20,0.261870760442699,11.860986742012606,0.08118928125,58.0,5.193764632433277,136.66248437499996,Unhealthy for Sensitive Groups
Abu Dhabi,Baniyas School,24.32129,54.63589,2024-05-20,,14.68806781134536,0.10568003125,101.0,0.4006945528328391,73.76767676767676,Moderate
Abu Dhabi,Bida Zayed,23.652199,53.70379,2024-05-20,,5.595707454901107,0.0688980625,69.0,19.141751209614483,96.40033749999996,Moderate
Abu Dhabi,Hamdan Street,24.48889,54.36369,2024-05-20,0.523741520885398,28.339893501412732,,56.0,0.4006945528328391,51.494949494949495,Moderate
Abu Dhabi,Khadeeja School,24.48188,54.369138,2024-05-20,,28.839415344490327,0.0691018125,100.0,2.7132745434680823,97.06592083333331,Moderate
Abu Dhabi,Khalifa City A,24.419899,54.57809,2024-05-20,,5.191838730710715,0.0907349687499999,110.0,0.431223661620103,163.21123519736815,Unhealthy
Abu Dhabi,Mussafah,24.34715,54.5028,2024-05-20,,38.234677244077375,,115.0,0.4006945528328391,80.6969696969697,Moderate
Adana,Adana - Doğankent,36.8545335602479,35.3491425469822,2022-04-13,,0.0,,,,0.0,Good
Adana,Adana - Doğankent,36.8545335602479,35.3491425469822,2023-05-31,,,0.0156459625,113.917,1.5005056968940225,80.1609393939394,Moderate
Adana,Adana - Meteoroloji,37.0040545100691,35.3440100793125,2023-05-31,0.2615058871831489,,0.02091188125,72.049,3.49520134228188,59.43839393939395,Moderate
Adana,Adana - Meteoroloji,37.0040545100691,35.3440100793125,2023-01-27,,31.08938926320365,,,,29.329612512456272,Good
Adana,Adana - Valilik,37.0014588022949,35.3125007450909,2023-05-31,0.2090715048197072,,0.027482309375,49.999,15.72821523333854,46.29537037037037,Good
Adana,Adana - Valilik,37.0014588022949,35.3125007450909,2023-04-12,,42.704866333405775,,,,40.28760974849602,Good
Adana,Adana - Çatalan,37.1867016284142,35.2645857632489,2023-05-31,,5.612181047598348,0.012160309375,28.406,,26.30185185185185,Good
Adana,Adana - Çatalan,37.1867016284142,35.2645857632489,2023-05-05,,,,,1.270774153269861,1.8153916475283731,Good
Adana,Adana-Seyhan,36.9760127428196,35.3194552437134,2023-05-31,0.3740038200642627,,,32.94,2.186647416887779,30.499999999999996,Good
Adana,Adana-Turhan Cemal Beriker Bulvarı,36.9919037153292,35.3260577288361,2023-05-31,0.5261001035344519,54.04932623342752,,60.106,,53.52721212121212,Moderate
Adana,Adana-Yakapınar,36.9578167134097,35.606637364418,2023-05-31,0.2226948946804712,,,48.093,2.369822069611363,44.53055555555556,Good
Adana,Adana-Yakapınar,36.9578167134097,35.606637364418,2022-12-21,,,0.0150775,,,13.960648148148149,Good
Adana,Adana-Yakapınar,36.9578167134097,35.606637364418,2023-04-10,,5.595707454901107,,,,5.278969297076516,Good
Adana,Adana-Çukurova,37.0400888850044,35.2698772994523,2023-05-31,,,,39.198,1.0532542531606055,36.294444444444444,Good
Adana,Adana-Çukurova,37.0400888850044,35.2698772994523,2022-12-22,,,0.0096883124999999,,,8.97065972222213,Good
Adana,Valilik,36.999171,35.3124388,2017-07-20,,4.782655944359921,0.0346374999999999,56.0,1.1448415795223974,51.494949494949495,Moderate
Adana,Çatalan,37.1864029,35.2619539,2017-07-20,,3.188437296239948,0.037184375,34.0,0.7632277196815983,34.429976851851855,Good
Adelaide,CBD,-34.92889,138.6010841,2021-04-05,0.21,22.0,,17.5,,20.754716981132077,Good
Adelaide,CBD,-34.928853,138.600943,2024-03-16,0.21,17.0,,15.5,,16.037735849056602,Good
Adelaide,Christies,-35.1349443,138.4951966,2024-03-16,,7.0,0.014,13.6,,12.962962962962964,Good
Adelaide,Le Fevre 1,-34.8386688,138.4963475,2021-04-05,0.39,,,,,4.431818181818182,Good
Adelaide,Le Fevre 1,-34.8386688,138.4963475,2024-03-16,,,,21.0,,19.444444444444443,Good
Adelaide,Le Fevre 2,-34.79128,138.4978642,2024-03-16,,18.0,0.005,17.0,0.0,16.9811320754717,Good
Adelaide,Netley,-34.9438035,138.549098,2024-03-16,,20.0,0.0,19.0,,18.867924528301888,Good
Adelaide,Northfield (gases only),-34.8620143,138.6229313,2024-03-16,,5.0,0.018,,,16.666666666666668,Good
Adelaide,Northfield (gases only),-34.8620143,138.6229313,2020-01-13,,,,,0.0,0.0,Good
Adrian,TECUMSEH,41.995602,-83.946701,2023-05-30,,,0.075,,,115.0,Unhealthy for Sensitive Groups
Adıyaman,Adıyaman,37.7553113473677,38.277780122955,2023-05-31,,,,24.875,2.2999867332604964,23.03240740740741,Good
Afyonkarahisar,Afyon - Merkez/Karayolları,38.7476426324715,30.5528691779098,2023-05-31,0.3692037290253481,16.611758313410128,,17.11,0.4960980177930389,15.842592592592592,Good
Afyonkarahisar,Afyon - Sandıklı,38.460481,30.268784,2023-05-31,,,,16.912,4.843443109099423,15.659259259259258,Good
Afyonkarahisar,Afyon-Selçuk Cami,38.773421,30.52796,2023-05-31,,7.460943273201478,,15.905,1.6104104885281725,14.726851851851851,Good
Afyonkarahisar,Afyon-Selçuk Cami,38.773421,30.52796,2023-05-08,,,0.02631635,,,24.36699074074074,Good
"Agrigento, Salita Coniglio n.181",AG - Centro,37.30641299983269,13.589903999914917,2025-01-11,,6.258435572158226,0.0415181884375,,,38.44276707175926,Good
"Agrigento, Via Papa Giovanni XXIII n.132",AG - ASP,37.307047000239656,13.593962999796968,2025-01-11,,5.838734662573354,0.0425173784375,,,39.36794299768519,Good
Aguascalientes,CBTIS,21.873311111111,-102.32080277778,2024-01-31,,,0.0025762999999999,,,2.3854629629628703,Good
Aguascalientes,CBTIS,21.873311111111,-102.32080277778,2023-11-09,,,,,0.073457,0.10493857142857142,Good
Aguascalientes,CBTIS,21.873311111111,-102.32080277778,2025-01-16,0.0,12.36,,36.0,,33.333333333333336,Good
Aguascalientes,Centro,21.883780555556,-102.295825,2025-01-30,8.999999999999999e-05,,,,,0.0010227272727272726,Good
Aguascalientes,Centro,21.883780555556,-102.295825,2023-08-29,,,0.0084,,,7.777777777777778,Good
Aguascalientes,Centro,21.883780555556,-102.295825,2024-02-21,,,,,0.0,0.0,Good
Aguascalientes,Centro,21.883780555556,-102.295825,2025-01-04,,25.72,,31.31,,28.99074074074074,Good
Aguascalientes,Instituto Educativo,21.903277777778005,-102.27611111111,2024-04-27,,,0.11312,,,208.49872340425532,Very Unhealthy
Aguascalientes,Instituto Educativo,21.903277777778005,-102.27611111111,2024-11-16,,113.29,,,0.0,103.32513513513514,Unhealthy for Sensitive Groups
Aguascalientes,Instituto Educativo,21.903277777778005,-102.27611111111,2024-11-21,0.79912,,,,,9.080909090909092,Good
Aguascalientes,Instituto Educativo,21.903277777778005,-102.27611111111,2025-01-27,,,,23.17,,21.453703703703706,Good
Ai Ponti s.n.c. - fraz. Alpe Devero,Baceno - Alpe Devero,46.314800000280506,8.255899999638993,2025-01-11,,1.5942186481199738,0.0387125,,,35.844907407407405,Good
Air Quality Luxembourg,Bascharage,49.567099999826574,5.910949999959572,2025-01-31,,26.46402955879157,,,,24.966065621501482,Good
Air Quality Luxembourg,Beckerich,49.7318099998994,5.847140000027115,2025-01-31,,7.9710932405998705,0.0094234375,,,8.725405092592593,Good
Air Quality Luxembourg,Beidweiler,49.72226000000245,6.305330000147759,2025-01-31,,6.323733970875896,0.01935625,,,17.922453703703702,Good
Air Quality Luxembourg,Beidweiler,49.72226000000245,6.305330000147759,2025-01-27,,,,2.7,,2.5,Good
Air Quality Luxembourg,Beidweiler,49.72226000000245,6.305330000147759,2022-02-07,,,,,3.0147494927423133,4.306784989631876,Good
Air Quality Luxembourg,Esch Gare,49.49415999988304,5.984759999820769,2025-01-31,,30.13073244946751,,,,28.42521929195048,Good
Air Quality Luxembourg,Esch/Alzette,49.50504000003322,5.976939999982496,2025-01-31,0.3491610139235987,31.72495109758748,0.001528125,12.0,,29.929199148667433,Good
Air Quality Luxembourg,Esch/Alzette,49.50504000003322,5.976939999982496,2022-02-03,,,,,1.4501326673950368,2.071618096278624,Good
Air Quality Luxembourg,Luxembourg Bonnevoie,49.59769000023517,6.137590000018973,2025-01-31,0.3055158871831488,33.79743534014345,0.00101875,14.2,,31.884372962399482,Good
Air Quality Luxembourg,Luxembourg Bonnevoie,49.59769000023517,6.137590000018973,2024-12-13,,,,,1.5646168253472763,2.235166893353252,Good
Air Quality Luxembourg,Luxembourg Gasperich,49.5934900002768,6.1171499999454415,2025-01-31,,32.94718539447946,,,,31.082250372150437,Good
Air Quality Luxembourg,Luxembourg Pl. Winston Churchill,49.61157000022714,6.118469999695286,2025-01-31,,31.88437296239948,,14.0,,30.07959713433913,Good
Air Quality Luxembourg,Luxembourg Pl. Winston Churchill,49.61157000022714,6.118469999695286,2022-01-06,0.2444127097465191,,,,,2.7774171562104444,Good
Air Quality Luxembourg,Mont St. Nicolas,49.94395999949975,6.175910000133973,2024-09-13,,2.231906107367964,0.028525,,,26.412037037037038,Good
Ajdovscina,Otlica,45.93766834299975,13.911563347661083,2024-08-01,,,0.0590212812499999,,,64.13618541666632,Moderate
Ajka,"""Ajka""",47.1052780001576,17.556667000295818,2025-01-31,,13.94338442066942,0.00136542553125,23.0916214,3.0340843405650078,21.381130925925927,Good
Ajka,"""Ajka""",47.1052780001576,17.556667000295818,2021-01-22,0.7256703261335238,,,,,8.24625370606277,Good
Ajka,Ajka,47.103172,17.561381,2025-01-31,0.6442020706890396,13.922842860247773,0.0023940625,26.0,2.823942562821914,24.074074074074073,Good
Akron,East HS,41.063526,-81.468956,2023-05-30,,,,,0.0,0.0,Good
Akron,East HS,41.063526,-81.468956,2018-10-13,,,0.028,,,25.925925925925927,Good
Akron,Lake Rockwell,41.182466,-81.330486,2023-05-30,,,0.069,,,96.73333333333332,Moderate
Akron,NIFH STEM MS,41.07914,-81.51627,2018-11-14,0.1,,,,,1.1363636363636365,Good
Akron,NIFH STEM MS,41.07914,-81.51627,2021-12-29,,,,,-1.0,,
Akron,Patterson Park,41.106486,-81.503547,2018-11-15,0.0,,,,,0.0,Good
Akron,Patterson Park,41.106486,-81.503547,2021-11-01,,,0.018,,,16.666666666666668,Good
Aksaray,Aksaray,38.364483,34.028539,2023-05-31,0.1832562852552659,,0.032924471875,29.755,2.4396574059622287,30.485622106481483,Good
Aksaray,Aksaray,38.364483,34.028539,2023-02-20,,-2.2196837643990435,,,,,
Al Ain,Al Ain Islamic Institute,24.219,55.7348,2024-05-20,,8.247424472940665,0.0695296874999999,99.0,9.032800062431717,98.46364583333298,Moderate
Al Ain,Al Ain Street,24.22579,55.76579,2024-05-20,0.4015351660121385,31.825918278635083,,133.0,3.976416419541127,89.60606060606061,Moderate
Al Ain,Al Qua'a,23.53109,55.48589,2024-05-20,0.4975544448411281,1.4454249076287764,0.0654139374999999,96.0,5.014406118308101,85.01886249999964,Moderate
Al Ain,Al Tawia,24.25909,55.70479,2024-05-20,,1.705813953488372,0.0709966875,111.0,4.648056812860934,78.71717171717172,Moderate
Al Ain,Sweihan,24.466506,55.34282475,2024-05-20,0.3055158871831488,5.659476200825908,0.0806136875,96.0,8.830544716716094,134.64790625,Unhealthy for Sensitive Groups
Al Ain,Zakher,24.163390000000003,55.70209,2024-05-20,,4.405357530971528,,113.0,8.166536600593101,79.70707070707071,Moderate
Al Ruways Industrial City,Ruwais,24.09079,52.75479,2024-05-20,0.3142449125312388,11.180786785481418,0.0515996875,58.0,10.627945996566256,52.484848484848484,Moderate
Alba,RO0093A,45.9668998694635,23.56139946,2022-03-14,,31.152131443914367,0.0366773730660625,,,33.96053061672454,Good
Alba,RO0093A,45.9668998694635,23.56139946,2023-12-19,,,,88.39354838,,67.52811990525252,Moderate
Alba,RO0094A,46.1082913506526,23.2255823447966,2022-04-28,,,0.0326686100415,,,30.24871300138889,Good
Alba,RO0094A,46.1082913506526,23.2255823447966,2022-10-17,,1.0648981217670077,,,,1.0046208695915166,Good
Albany,Albany,31.5767,-84.1002,2023-05-30,,,,16.0,,14.814814814814815,Good
Albany-Schenectady-Troy,Loudonville,42.6769,-73.7556,2023-05-30,,,0.043,,,39.81481481481482,Good
Albany-Schenectady-Troy,Stillwater,43.0122,-73.6492,2023-05-30,,,0.042,,,38.88888888888889,Good
Albuquerque,2LL Los Lunas,34.8147,-106.7397,2023-05-30,,,0.049,,,45.370370370370374,Good
Albuquerque,Bernalillo,35.2994,-106.5483,2023-05-30,,,0.053,,,49.074074074074076,Good
Albuquerque,Del Norte,35.1353,-106.584702,2023-05-30,0.2,2.1,0.055,23.0,0.0,51.0,Moderate
Albuquerque,Jefferson,35.1441,-106.6044,2023-05-30,,,,41.0,,37.96296296296296,Good
Albuquerque,North Valley,35.187801,-106.603897,2023-05-30,,,,30.0,,27.77777777777778,Good
Albuquerque,South Valley,35.0186,-106.651901,2023-05-30,0.0,11.9,0.052,64.0,,55.45454545454545,Moderate
Albuquerque,Tramway,35.185,-106.5077,2023-05-30,,,0.053,28.0,,49.074074074074076,Good
Aldersro,"""Copenhagen/1259""",55.70027923951807,12.5614004100753,2025-01-31,0.1483934309175294,10.479330580308629,0.01966696875,,,18.21015625,Good
Alfred Nzo,Columbus,-25.809675,29.505702,2023-05-31,,1.61,,,3.16,4.514285714285714,Good
Alfred Nzo,ES_Motherwell,-33.789662,25.618592,2023-05-30,,0.5686046511627907,0.0067645,12.0,2.4766739503667865,11.11111111111111,Good
Alfred Nzo,Lebone,-25.5956514035919,27.1256297242044,2023-04-12,,,,27.666666666666668,3.5730000000000004,25.617283950617285,Good
Alfred Nzo,Lebone,-25.5956514035919,27.1256297242044,2023-03-22,,,,,5.101999999999999,7.288571428571428,Good
Alfred Nzo,Lebone,-25.5956514035919,27.1256297242044,2023-04-04,,,,3.0,0.082,2.7777777777777777,Good
Alfred Nzo,Lebone,-25.5956514035919,27.1256297242044,2023-05-21,,,,10.222222222222221,29.344,41.92,Good
Alfred Nzo,Lebone,-25.5956514035919,27.1256297242044,2023-05-22,,,,32.4,66.9234,89.85247692307692,Moderate
Alfred Nzo,Lebone,-25.5956514035919,27.1256297242044,2023-05-24,,,,52.0,4.158,48.148148148148145,Good
Alfred Nzo,Luka,-25.5077634717075,27.1838594119125,2023-05-30,,,,56.0,1.765,51.494949494949495,Moderate
Alfred Nzo,Luka,-25.5077634717075,27.1838594119125,2023-04-12,,,,0.0,5.43,7.757142857142857,Good
Alfred Nzo,Luka,-25.5077634717075,27.1838594119125,2022-08-04,,,,62.6,50.2938,68.95887692307691,Moderate
Alfred Nzo,Luka,-25.5077634717075,27.1838594119125,2022-08-05,,,,59.0,13.520499999999998,52.97979797979798,Moderate
Alfred Nzo,Luka,-25.5077634717075,27.1838594119125,2022-09-29,,,,31.0,2.853,28.703703703703702,Good
Alfred Nzo,Luka,-25.5077634717075,27.1838594119125,2022-10-09,,,,80.5,3.5805000000000002,63.621212121212125,Moderate
Alfred Nzo,Luka,-25.5077634717075,27.1838594119125,2023-04-24,,,,61.5,17.4195,54.217171717171716,Moderate
Alfred Nzo,Luka,-25.5077634717075,27.1838594119125,2023-05-26,,,,120.0,29.026,83.17171717171718,Moderate
Alfred Nzo,Ratanang,-25.4835077884696,27.1675392542411,2023-05-30,,,,51.0,8.142999999999999,47.22222222222222,Good
Alfred Nzo,Ratanang,-25.4835077884696,27.1675392542411,2022-12-22,,,,3.0,4.69,6.700000000000001,Good
Alfred Nzo,Ratanang,-25.4835077884696,27.1675392542411,2022-08-04,,,,33.333333333333336,6.563666666666667,30.8641975308642,Good
Alfred Nzo,Ratanang,-25.4835077884696,27.1675392542411,2022-09-29,,,,32.4,7.736400000000001,30.0,Good
Alfred Nzo,Ratanang,-25.4835077884696,27.1675392542411,2022-10-09,,,,70.0,13.336666666666666,58.42424242424242,Moderate
Alfred Nzo,Ratanang,-25.4835077884696,27.1675392542411,2023-05-26,,,,55.0,3.923666666666667,51.0,Moderate
Alingsås,Östad,57.95249899936004,12.402999999919404,2024-08-01,,,0.0061125,,,5.659722222222222,Good
Allegan,HOLLAND,42.767799,-86.148598,2023-05-30,,,0.071,,,101.0,Unhealthy for Sensitive Groups
Allentown-Bethlehem-Easton,Allentown,40.6119,-75.4325,2023-05-30,,,0.04,,,37.03703703703704,Good
Allentown-Bethlehem-Easton,EAS2,40.6922,-75.2372,2018-02-15,,,0.003,,,2.777777777777778,Good
Allentown-Bethlehem-Easton,Freemansburg,40.6281,-75.3411,2023-05-30,,,0.05,,,46.296296296296305,Good
Almería,ES1996A,37.1934199994825,-1.9854,2024-01-29,,1.5942186481199738,0.0392218749999999,20.68,1.1448415795223974,36.31655092592583,Good
Almoloya de Juárez,Almoloya de Juárez,19.370438888889,-99.75275,2024-04-02,0.0,,,,,0.0,Good
Almoloya de Juárez,Almoloya de Juárez,19.370438888889,-99.75275,2024-07-03,,5.0,,,7.0,10.0,Good
Almoloya de Juárez,Almoloya de Juárez,19.370438888889,-99.75275,2025-01-17,,,0.008,87.0,,66.83838383838383,Moderate
Alpes-Maritimes,FR24007,43.5997495987433,7.094723434072,2024-01-29,,17.908389480547704,0.0294418749999999,,,27.260995370370278,Good
Alpes-Maritimes,FR24009,43.5625273554356,7.00721854224592,2024-01-29,,17.642686372527713,0.0328546875,16.4,,30.421006944444446,Good
Alpes-Maritimes,FR24011,43.6860789340896,7.21194459549675,2024-01-29,,,0.0414121874999999,,,38.344618055555465,Good
Alpes-Maritimes,FR24014,44.0883193867536,6.98917138818795,2024-01-29,,,0.0369296875,,,34.194155092592595,Good
Alpes-Maritimes,FR24023,43.7933622306242,7.33139357882613,2024-01-29,,20.352858074331667,,47.0,,43.51851851851852,Good
Alpes-de-Haute-Provence,FR24018,43.8353015894571,5.78583314934565,2024-01-29,,16.951858291675723,0.020884375,27.6,,25.555555555555557,Good
Alpes-de-Haute-Provence,FR24039,43.9335199525261,5.71170417210011,2024-01-29,,,0.043704375,5.1,,40.467013888888886,Good
Alpes-de-Haute-Provence,FR24039,43.9335199525261,5.71170417210011,2024-01-26,,0.1594218648119973,,,,0.15039798567169557,Good
Altenberg,Zinnwald,50.73147799981492,13.751450000277025,2025-01-31,,1.171750706368181,0.0392666999999999,,0.1908069299203995,36.35805555555546,Good
Altenburg,Altenburg Theaterplatz,50.98775800002747,12.43762100000246,2025-01-31,,13.018733672353836,0.0227347533940624,7.96608,,21.050697587094817,Good
Altona North,Altona North,-37.8441238,144.861618,2025-01-08,,13.0,,,0.0,12.264150943396226,Good
Altoona,Altoona,40.515,-78.3889,2023-05-30,,,0.054,,,50.0,Good
Amarillo,Palo Duro,34.8803,-101.6649,2023-05-30,,,0.05,,,46.296296296296305,Good
Amasya,Amasya,40.6675549826002,35.8355412130616,2023-05-30,,,,,1.323818479787732,1.891169256839617,Good
Amasya,Amasya,40.6675549826002,35.8355412130616,2023-05-31,,,,29.276,,27.107407407407408,Good
Amasya,Amasya - Merzifon,40.8743333045692,35.4574722102547,2023-05-31,,14.06207128885025,,41.469,1.4173138754487282,38.397222222222226,Good
Amasya,Amasya - Suluova,40.820216,35.642157,2023-05-31,,0.360824820691154,,20.788,4.142036834712034,19.24814814814815,Good
Amasya,Amasya - Şehzade,40.6572237456913,35.8379605214598,2023-05-31,0.7590638236344163,10.071210606389917,0.016933153125,41.114,,38.068518518518516,Good
Amasya,Suluova,40.4923135472364,35.3854278521037,2017-10-20,,5.845468376439904,,145.0,3.052910878726393,95.54545454545455,Moderate
Americana,Americana,-22.7242527,-47.33954929,2023-04-05,,,0.054503125,40.0,,37.03703703703704,Good
Americus,Leslie,31.9531,-84.0794,2023-05-30,,,0.046,,,42.592592592592595,Good
Ames,SLATER,41.8829,-93.6879,2016-11-03,,,0.019,,,17.59259259259259,Good
"Ametlla de Mar, l'","Ametlla de Mar, l'",40.90248,0.8097212,2025-01-31,,1.5942186481199738,,,0.7632277196815983,1.5039798567169564,Good
Amman,US Diplomatic Post: Amman,31.945388,35.880556,2024-10-02,,,-0.999,,,,
Amnat Charoen,Amnat Charoen Municipality,15.875800000000002,104.6223,2024-07-06,0.3,2.0,0.026,,0.0,24.074074074074073,Good
Amsterdam,Amsterdam-Einsteinweg,52.38133100023151,4.845232999687698,2025-01-31,0.262743662977508,13.763420995435776,,8.9,,12.984359429656394,Good
Amsterdam,Amsterdam-Haarlemmerweg,52.38542199986677,4.875749999682863,2025-01-31,,24.3915453162356,,,,23.010891807769436,Good
Amsterdam,Amsterdam-Hoogtij,52.42801700027339,4.7734780002434976,2025-01-31,,8.715061943055858,,6.8,0.3816138598407991,8.221756550052696,Good
Amsterdam,Amsterdam-Jan van Galenstraat,52.374786000246935,4.86031900024369,2025-01-31,,15.091936535535751,,8.1,,14.23767597692052,Good
Amsterdam,Amsterdam-Kantershof (Zuid Oost),52.320691999776855,4.988396999868006,2025-01-31,,11.744077374483808,,,,11.079318277814913,Good
Amsterdam,Amsterdam-Nieuwendammerdijk,52.38931400010768,4.9438219998869615,2025-01-31,,13.019452292979787,0.0205278125,,,19.007233796296298,Good
Amsterdam,Amsterdam-Oude Schans,52.37205599978701,4.904399999582005,2025-01-31,,12.328624212127798,,,,11.63077755861113,Good
Amsterdam,Amsterdam-Sportpark Ookmeer (Osdorp),52.366811000259,4.793344000206674,2025-01-31,,2.763312323407955,,,,2.6068984183093917,Good
Amsterdam,Amsterdam-Stadhouderskade,52.35803899985509,4.899699999642448,2025-01-31,,15.623342751575745,,5.8,,14.739002595826175,Good
Amsterdam,Amsterdam-Van Diemenstraat,52.389983000188224,4.88781099987638,2025-01-31,0.3142449125312388,15.14507715713975,0.0209353125,7.7,,19.384548611111114,Good
Amsterdam,Amsterdam-Vondelpark,52.35971400001388,4.866208000411839,2025-01-31,0.2321920742591931,4.623234079547924,0.0215974999999999,21.7,,20.09259259259259,Good
Amsterdam,Amsterdam-Westerpark,52.39397200025616,4.870156999790721,2025-01-31,,,,6.2,0.0763227719681598,5.740740740740741,Good
Amt der Burgenländischen Landesregierung,NET.01,47.83999999946592,16.528059999999996,2024-03-04,0.211547920581935,4.161309215627037,0.032623940625,8.98335075,1.1112023063290153,30.207352430555556,Good
Amt der Kärntner Landesregierung,NET.02,46.55889999946402,13.705000000000004,2024-03-04,,,0.025838046875,3.0,1.7401591779772123,23.92411747685185,Good
Amt der Kärntner Landesregierung,NET.02,46.61027777724185,14.398333333333332,2024-03-04,,,,32.33000183,,29.93518687962963,Good
Amt der Kärntner Landesregierung,NET.02,46.65305555506412,14.26611111111111,2024-03-04,,4.787970123429689,,,,4.516952946631783,Good
Amt der Kärntner Landesregierung,NET.02,46.83499999946434,14.843611111111114,2024-03-04,,17.398240400597693,0.0122351875,26.38999938,0.7765842353051351,24.43518461111111,Good
Amt der Kärntner Landesregierung,NET.02,46.93499999946445,13.195833,2024-03-04,,2.856308411214953,0.0331705,6.125,,30.713425925925925,Good
Amt der Niederösterreichischen Landesregierung,NET.03,47.67027777946561,15.860277778,2024-03-04,,1.9307852214301235,0.041723925,,0.3243717656001249,38.63326388888889,Good
Amt der Niederösterreichischen Landesregierung,NET.03,47.86194443946595,15.321944439999996,2024-03-04,,,0.03516826875,,,32.56321180555556,Good
Amt der Niederösterreichischen Landesregierung,NET.03,47.95916699946615,16.205833,2024-03-04,,10.466888554009996,0.0312043125,13.0,,28.892881944444447,Good
Amt der Niederösterreichischen Landesregierung,NET.03,48.05027799946632,16.675278,2024-03-04,,2.4896966246576837,0.0355238124999999,,0.4770173248009989,32.89241898148139,Good
Amt der Niederösterreichischen Landesregierung,NET.03,48.05027799946632,16.675278,2023-12-30,,,,16.0,,14.814814814814815,Good
Amt der Niederösterreichischen Landesregierung,NET.03,48.08388888835528,16.33027777777778,2024-03-04,,22.661321669908716,,25.5,,23.61111111111111,Good
Amt der Niederösterreichischen Landesregierung,NET.03,48.08611111046639,16.433333333,2024-03-04,,,0.0284088624999999,11.5,,26.304502314814723,Good
Amt der Niederösterreichischen Landesregierung,NET.03,48.10611109946644,15.919444444,2024-03-04,,2.4896966246576837,0.03598123125,,0.6487435312002499,33.315954861111116,Good
Amt der Niederösterreichischen Landesregierung,NET.03,48.12027777946647,14.878332999999996,2024-03-04,,8.18043234444686,0.01732995625,13.5,,16.046255787037037,Good
Amt der Niederösterreichischen Landesregierung,NET.03,48.12499999946648,16.331387999999997,2024-03-04,0.2387737768297037,20.070004835046728,,,,18.933966825515782,Good
Amt der Niederösterreichischen Landesregierung,NET.03,48.14361199946652,16.959444,2024-03-04,,3.963190658378613,0.0323223906249999,11.0,1.3928905311768378,29.9281394675925,Good
Amt der Niederösterreichischen Landesregierung,NET.03,48.14499999946651,16.474444444444444,2024-01-29,0.2692555071581577,,,,,3.059721672251792,Good
Amt der Niederösterreichischen Landesregierung,NET.03,48.14499999946651,16.474444444444444,2024-03-04,,15.852763653814389,0.0285616749999999,18.0,0.8395504153269863,26.44599537037028,Good
Amt der Niederösterreichischen Landesregierung,NET.03,48.17972221946659,14.866666670000004,2024-03-04,,,0.01732995625,,0.3243717656001249,16.046255787037037,Good
Amt der Niederösterreichischen Landesregierung,NET.03,48.19222999946661,14.51954,2024-03-04,,6.148026657737448,0.01641511875,,,15.199184027777777,Good
Amt der Niederösterreichischen Landesregierung,NET.03,48.19583499946665,16.143612,2024-03-04,,12.29605332078896,0.027697265625,,,25.645616319444443,Good
Amt der Niederösterreichischen Landesregierung,NET.03,48.20129999946664,15.620400000000002,2024-03-04,0.2082920115851481,14.430079722538578,,17.5,,16.203703703703702,Good
Amt der Niederösterreichischen Landesregierung,NET.03,48.21249999946667,15.634167,2024-03-04,,7.8247611118669855,0.02617270625,13.0,0.4960979987123459,24.23398726851852,Good
Amt der Niederösterreichischen Landesregierung,NET.03,48.2133333328,15.197222222222225,2024-03-04,,10.822559791903934,0.0076737343749999,,,10.209962067833901,Good
Amt der Niederösterreichischen Landesregierung,NET.03,48.23083333246671,16.63638889,2024-03-04,,4.064810868582917,,12.0,0.3434524624083034,11.11111111111111,Good
Amt der Niederösterreichischen Landesregierung,NET.03,48.322222219466894,15.96666667,2024-03-04,,3.9123805559334928,,12.0,,11.11111111111111,Good
Amt der Niederösterreichischen Landesregierung,NET.03,48.33111111057804,15.85833333333334,2024-03-04,,4.826963441501848,,14.0,0.7823084851802717,12.962962962962964,Good
Amt der Niederösterreichischen Landesregierung,NET.03,48.33111111057804,15.903611111111111,2017-07-20,,,,,0.7632277196815983,1.0903253138308548,Good
Amt der Niederösterreichischen Landesregierung,NET.03,48.33111111057804,15.903611111111111,2024-03-04,,4.115621226103022,,11.0,,10.185185185185185,Good
Amt der Niederösterreichischen Landesregierung,NET.03,48.37027799946701,15.545833330000002,2024-03-04,,3.8615704481743096,0.0254616187499999,,0.9158732979631652,23.575572916666577,Good
Amt der Niederösterreichischen Landesregierung,NET.03,48.39222221946705,16.522666621999996,2024-03-04,,7.875571724462073,0.02800238125,,,25.928130787037038,Good
Amt der Niederösterreichischen Landesregierung,NET.03,48.52888888835624,15.942777777777776,2024-03-04,,,0.0270875437499999,12.5,,25.081059027777687,Good
Amt der Niederösterreichischen Landesregierung,NET.03,48.57861109946749,16.580555600000004,2024-03-04,,,0.0299334218749999,13.0,0.4960979987123459,27.71613136574065,Good
Amt der Nieder��sterreichischen Landesregierung,NET.03,48.19222999946662,14.51954,2024-02-29,,5.182633664409909,0.0232254624999999,,,21.50505787037028,Good
Amt der Oberösterreichischen Landesregierung,NET.04,48.00083333279955,13.667499999999997,2024-01-29,,,0.00106765,,,0.988564814814815,Good
Amt der Oberösterreichischen Landesregierung,NET.04,48.00083333279955,13.667499999999997,2024-03-04,,4.947391584372962,,15.33099937,,14.195369787037038,Good
Amt der Oberösterreichischen Landesregierung,NET.04,48.00083333279955,13.667499999999997,2022-02-15,,,,,1.0379896186280633,1.4828423123258048,Good
Amt der Oberösterreichischen Landesregierung,NET.04,48.16499999946656,14.035556,2024-03-04,0.2235608139950017,12.265653106933277,0.017014653125,16.82199859,1.255891258529733,15.754308449074076,Good
Amt der Oberösterreichischen Landesregierung,NET.04,48.22527779946668,14.238888890000002,2017-07-20,,,,,0.2556812670126424,0.3652589528752034,Good
Amt der Oberösterreichischen Landesregierung,NET.04,48.22527779946668,14.238888890000002,2024-03-04,,7.1155289033036295,0.015530334375,13.64500045,,14.379939236111111,Good
Amt der Oberösterreichischen Landesregierung,NET.04,48.25777777724453,13.039722222222224,2024-03-04,,8.089065484329494,0.017075778125,21.06000137,0.172871078507882,19.500001268518517,Good
Amt der Oberösterreichischen Landesregierung,NET.04,48.27444444346679,14.314722200000002,2024-03-04,0.2743698605676544,10.111066295783523,0.017746625,19.12100028,1.2253620886842516,17.70462988888889,Good
Amt der Oberösterreichischen Landesregierung,NET.04,48.278888888355695,14.365833333333336,2024-03-04,0.4826876053195287,18.124139867539665,,47.78549957,3.762712524465429,44.245832935185184,Good
Amt der Oberösterreichischen Landesregierung,NET.04,48.30277777724464,14.28277777777778,2024-03-04,0.3048550825062477,12.382561098119972,,26.01599884,,24.088887814814818,Good
Amt der Salzburger Landesregierung,NET.05,47.12583333279805,13.808333333333332,2024-03-04,,6.8085590257661375,0.03064501875,15.04500007,,28.375017361111112,Good
Amt der Salzburger Landesregierung,NET.05,47.68305559946562,13.099999999999998,2024-03-04,0.2286131738664762,28.19962758719844,,19.21500015,1.779573921257999,26.603422252074,Good
Amt der Salzburger Landesregierung,NET.05,47.69111111057674,13.108055555555556,2024-03-04,,13.66792663946968,,14.9300003,,13.824074351851852,Good
Amt der Salzburger Landesregierung,NET.05,47.79749999946582,13.053611111111117,2024-03-04,0.2235328811138878,12.194433110584654,,19.43500137,,17.995371638888887,Good
Amt der Steiermärkischen Landesregierung,NET.06,47.04722199946463,16.078888,2024-03-04,,17.025582630156485,0.0053107437499999,38.21952056,,35.388444962962964,Good
Amt der Steiermärkischen Landesregierung,NET.06,47.13555555502029,15.323611111111113,2024-03-04,,13.000060536187783,,15.5360012,0.7065332336975183,14.385186296296295,Good
Amt der Steiermärkischen Landesregierung,NET.06,47.17833333279812,14.676666666666666,2024-03-04,,8.874775108813301,0.01987275625,19.28219795,,18.400700231481483,Good
Amt der Steiermärkischen Landesregierung,NET.06,47.35888888835397,15.103611111111109,2024-03-04,,15.541929007661375,,50.68383026,,46.92947246296296,Good
Amt der Steiermärkischen Landesregierung,NET.06,47.37555555502066,15.074500000000006,2024-03-04,0.3020050906461978,12.85893819708759,,48.47304916,1.3039111615654757,44.882452925925925,Good
Amt der Steiermärkischen Landesregierung,NET.06,47.38249999946512,15.089166666666667,2024-03-04,,,0.016370803125,,,15.158151041666667,Good
Amt der Steiermärkischen Landesregierung,NET.06,47.38249999946512,15.089166666666667,2023-11-09,,,,20.43911361,,18.925105194444445,Good
Amt der Steiermärkischen Landesregierung,NET.06,47.38249999946512,15.089166666666667,2023-11-13,,11.648011767463592,,,,10.988690346663766,Good
Anchorage,Garden,61.205861,-149.8246,2023-05-30,0.1,,,22.0,,20.37037037037037,Good
Anchorage,Laurel,61.181117,-149.834,2023-05-30,,,,15.0,,13.88888888888889,Good
Anchorage,Parkgate (Eagle Rive,61.3267,-149.569707,2023-05-30,,,,42.0,,38.888888888888886,Good
Andacollo,Andacollo,-30.227767752117,-71.086126833637,2025-01-31,,,,40.0,,37.03703703703704,Good
Andacollo,Chepiquilla,-30.255042,-71.084707,2025-01-31,,,,44.0,,40.74074074074074,Good
Andacollo,Urmeneta - Plaza Centenario,-30.239515,-71.085853,2025-01-31,,,,45.0,,41.666666666666664,Good
Andechs,Andechs/Rothenfeld,47.9687530002016,11.220172000422696,2025-01-31,,4.129026298630732,0.0328546875,6.13,,30.421006944444446,Good
Andenne,43N073 - VEZIN,50.50271634178876,4.988422953993196,2025-01-31,,7.705390132579874,0.0094234375,15.271,,14.139814814814816,Good
Anderson,Anderson-Eastside El,40.12569,-85.652127,2023-05-30,,,0.052,,,48.148148148148145,Good
Anderson,Big Creek,34.623199,-82.532097,2020-11-03,,,0.024,,,22.222222222222225,Good
Anderson,Emporia,40.0025,-85.6569,2020-12-04,,,0.009,,,8.333333333333334,Good
Andrea Schemmel,NET.DE_HB,53.12456099999999,8.735047,2024-03-04,0.3578900392716886,11.00542273418822,,43.43,-0.0076322771968159,40.21296296296296,Good
Angolo via Molli - Borgomanero (NO),Borgomanero - Molli,45.6894000002738,8.458399999768009,2025-01-11,0.9601927882898964,19.66202999347968,,43.0,,39.81481481481482,Good
Ankara,Ankara - Bahçelievler,39.9183228258666,32.8229047288365,2023-05-31,,46.753118887198426,,32.829,2.1255891993132514,44.10671593131927,Good
Ankara,Ankara - Bahçelievler,39.9183228258666,32.8229047288365,2021-11-29,0.2210538379150303,,,,,2.511975430852617,Good
Ankara,Ankara - Batıkent,39.953754,32.726386,2023-05-31,,,,60.619,,53.781121212121214,Moderate
Ankara,Ankara - Batıkent,39.953754,32.726386,2023-03-22,,6.382188654640296,,,,6.020932693056883,Good
Ankara,Ankara - Batıkent,39.953754,32.726386,2023-05-16,,,,,2.2133603870766354,3.161943410109479,Good
Ankara,Ankara - Demetevler,39.9677388866755,32.7956697288361,2023-05-31,,39.23318952401651,,13.177,5.031578742000937,37.012442947185384,Good
Ankara,Ankara - Etimesgut,39.939805,32.640034,2023-05-30,,60.94166485546621,,,,58.394382128648786,Moderate
Ankara,Ankara - Etimesgut,39.939805,32.640034,2023-05-31,0.7369610585505176,,,22.427,5.457078195723428,20.76574074074074,Good
Ankara,Ankara - Etlik,39.973704,32.823266,2023-05-31,0.7503121028204213,,,19.565,,18.11574074074074,Good
Ankara,Ankara - Kayaş,39.925380910314,32.9267642097532,2023-05-30,,,,49.964,,46.26296296296296,Good
Ankara,Ankara - Kayaş,39.925380910314,32.9267642097532,2018-10-13,,19.66202999347968,,,,18.549084899509133,Good
Ankara,Ankara - Kayaş,39.925380910314,32.9267642097532,2023-05-29,,,,,4.044725300452631,5.778179000646617,Good
Ankara,Ankara - Keçiören Sanatoryum,39.99922,32.85564,2023-05-31,,39.66415996522495,0.01313474375,20.721,4.483962853129389,37.419018835117875,Good
Ankara,Ankara - Mamak,39.9285018251445,32.9103022813797,2023-05-31,,31.570843294935884,,21.728,7.285008584360856,29.783814429184797,Good
Ankara,Ankara - Mamak,39.9285018251445,32.9103022813797,2023-02-19,0.1939327561585148,,,,,2.2037813199831224,Good
Ankara,Ankara - Ostim,39.981614,32.74425,2023-05-31,,,0.00289426875,47.987,2.644584048696738,44.43240740740741,Good
Ankara,Ankara - Ostim,39.981614,32.74425,2023-05-16,,25.80508585090197,,,,24.344420614058464,Good
Ankara,Ankara - Polatlı,39.576615,32.129461,2023-05-31,,16.000641164964136,0.0077012406249999,14.209,3.942071172155456,15.094944495249186,Good
Ankara,Ankara - Sincan,39.953072,32.581754,2023-05-31,,30.008509019778305,,25.107,1.820298111440612,28.309914169602177,Good
Ankara,Ankara - Sincan,39.953072,32.581754,2018-03-23,,,0.256725,,,328.51681141439207,Hazardous
Ankara,Ankara - Siteler,39.96458,32.90718,2023-05-30,,,,,-2.3205938816919,,
Ankara,Ankara - Siteler,39.96458,32.90718,2022-12-20,,0.0005314062160399,,,,0.000501326618905566,Good
Ankara,Ankara - Siteler,39.96458,32.90718,2022-04-13,,,0.0259271874999999,,,24.006655092592503,Good
Ankara,Ankara - Siteler,39.96458,32.90718,2023-05-31,1.109180665833631,,,57.991,,52.48039393939394,Moderate
Ankara,Ankara - Sıhhıye,39.9270651327293,32.8600140092085,2023-05-31,1.5190913316672618,57.646946316018266,0.00441628125,34.154,4.808334633994069,54.88479064097598,Moderate
Ankara,Ankara - Törekent,39.983787,32.57651,2023-05-31,0.9257742413423776,20.055270593349277,,13.515,3.075807710316841,18.920066597499318,Good
Ankara,Ankara - Ulus,39.9400835480569,32.8498997485429,2023-05-31,,86.03998043903499,,30.386,3.2818791946308727,85.1295443807112,Moderate
Ankara,Ankara - Ulus,39.9400835480569,32.8498997485429,2023-05-03,,,0.016115096875,,,14.92138599537037,Good
Ankara,Ankara Yaşamkent,39.861041,32.640589,2023-05-31,0.17441727418779,18.508878504672897,0.00024959375,11.038,1.7668721710629,17.461206136483863,Good
Ankara,Ankara-Çankaya,39.8574335115078,32.8584605455398,2023-05-30,0.123899785790789,13.742164746794172,,,,12.964306364900162,Good
Ankara,Ankara-Çankaya,39.8574335115078,32.8584605455398,2023-05-31,,,,7.803,,7.225,Good
Ankara,Cebeci,39.9369481973252,32.878167285641,2018-10-13,0.0,4.251249728319931,,0.0,2.289683159044795,4.010612951245218,Good
Ankara,Cebeci,39.9369481973252,32.878167285641,2018-07-02,,,0.050428125,,,46.692708333333336,Good
Ankara,Dikmen,39.8964451852144,32.8407919403218,2018-10-13,,56.860465116279066,,81.0,0.7632277196815983,63.868686868686865,Moderate
Ankara,EMEP - Ankara Çubuk,40.2897905275791,33.0129439615596,2023-05-31,,9.74067594001304,0.03555845,,3.140300452629936,32.924490740740744,Good
Ankara,EMEP - Ankara Çubuk,40.2897905275791,33.0129439615596,2022-10-28,903.503006069261,,,9.031,,8.362037037037037,Good
Ankara,Keçiören,39.967261926547,32.8628299146524,2018-10-13,,24.976092153879588,0.0183375,82.0,1.5264554393631966,64.36363636363636,Moderate
Ankara,Sıhhıye,39.9272745476216,32.8594112795431,2018-10-13,0.9043270260621208,45.16952836339927,,41.0,2.289683159044795,42.612762606980446,Good
Ann Arbor,Ann Arbor,42.4164,-83.9019,2023-05-30,,,0.08,,,132.5,Unhealthy for Sensitive Groups
Ann Arbor,YPSILANTI,42.24,-83.5997,2023-05-30,,,0.067,,,90.19999999999999,Moderate
Annaberg-Buchholz,Annaberg-Buchholz,50.5708720000116,12.997278000371749,2025-01-31,,5.715805259726146,0.03224955,1.915,0.1908069299203995,29.860694444444448,Good
Ansbach,Ansbach/Residenzstraße,49.30488900025479,10.572297000401964,2025-01-31,0.2269546590503391,14.56584438165616,,9.56,,13.741362624203925,Good
Ansbach,Ansbach/Residenzstraße,49.30488900025479,10.572297000401964,2017-12-31,,,,,2.923162166380522,4.175945951972174,Good
